{"version": 0.6, "generator": "Overpass API 0.7.62.11 87bfad18", "osm3s": {"timestamp_osm_base": "2026-03-24T09:21:59Z", "copyright": "The data included in this document is from www.openstreetmap.org. The data is made available under ODbL."}, "elements": [{"type": "node", "id": 12157143, "lat": 43.2462999, "lon": 5.4319186, "tags": {"bus": "yes", "name": "Lachamp Le Clos des Iris", "name:oc": "Lacamp - Lo Claus dei Glaujas", "public_transport": "stop_position", "source:name:oc": "ieo-bdtopoc"}}, {"type": "node", "id": 12158603, "lat": 43.2630511, "lon": 5.3928928, "tags": {"bus": "yes", "name": "Mazargues Barral", "name:oc": "Marsan\u00e8ges - Barral", "public_transport": "stop_position", "source:name:oc": "ieo-bdtopoc"}}, {"type": "node", "id": 12167515, "lat": 43.2487483, "lon": 5.4410161, "tags": {"bus": "yes", "name": "Grands Pins", "name:oc": "Pin\u00e0s", "public_transport": "stop_position", "source": "Marseille Provence M\u00e9tropole Open Data 2013", "source:name:oc": "ieo-bdtopoc"}}, {"type": "node", "id": 12169876, "lat": 43.2487434, "lon": 5.3978033, "tags": {"bus": "yes", "name": "Jardin Bortoli", "name:oc": "Jardin Bort\u00f2li", "operator": "RTM", "public_transport": "stop_position"}}, {"type": "node", "id": 26608030, "lat": 43.2508772, "lon": 5.3899004, "tags": {"bus": "yes", "name": "MAC", "name:oc": "MAC", "public_transport": "stop_position", "source:name:oc": "ieo-bdtopoc"}}, {"type": "node", "id": 112288165, "lat": 43.2380575, "lon": 5.434345, "tags": {"bus": "yes", "name": "Cochet", "name:oc": "Cochet", "public_transport": "stop_position", "source": "Marseille Provence M\u00e9tropole Open Data 2013", "source:name:oc": "ieo-bdtopoc"}}, {"type": "node", "id": 112289271, "lat": 43.2332978, "lon": 5.4335375, "tags": {"bus": "yes", "name": "Kedge BS", "name:oc": "Kedge BS", "public_transport": "stop_position", "source:name:oc": "ieo-bdtopoc"}}, {"type": "node", "id": 112328716, "lat": 43.2283492, "lon": 5.4153958, "tags": {"bus": "yes", "name": "Morgiou Arnaud", "name:oc": "Morgiu - Arnaud", "public_transport": "stop_position", "source:name:oc": "ieo-bdtopoc"}}, {"type": "node", "id": 262638337, "lat": 43.2593926, "lon": 5.4025802, "tags": {"bus": "yes", "name": "Aiguier Trioulet", "name:oc": "Aiguier - Triolet", "public_transport": "stop_position"}}, {"type": "node", "id": 262638782, "lat": 43.2538608, "lon": 5.4131707, "tags": {"bus": "yes", "name": "Chemin Colline Saint-Joseph", "name:oc": "Camin C\u00f2la de Sant Jos\u00e8p", "public_transport": "stop_position", "source:name:oc": "ieo-bdtopoc"}}, {"type": "node", "id": 262640109, "lat": 43.2472744, "lon": 5.3930181, "tags": {"bus": "yes", "name": "Hambourg Lancier", "name:oc": "Amborg - Lancier", "public_transport": "stop_position", "source:name:oc": "ieo-bdtopoc"}}, {"type": "node", "id": 265707722, "lat": 43.2428756, "lon": 5.4062633, "tags": {"bus": "yes", "name": "Morgiou Seigneurie", "name:oc": "Morgiu - Senhori\u00e1", "public_transport": "stop_position", "source:name:oc": "ieo-bdtopoc"}}, {"type": "node", "id": 265707730, "lat": 43.2375, "lon": 5.4089499, "tags": {"bus": "yes", "name": "Morgiou Cauvi\u00e8re", "name:oc": "Morgiu - Cauvi\u00e8ra", "public_transport": "stop_position", "source:name:oc": "ieo-bdtopoc"}}, {"type": "node", "id": 270918752, "lat": 43.23161, "lon": 5.4371266, "tags": {"bus": "yes", "name": "Luminy Parc National des Calanques", "name:oc": "Lumini - Pargue Nacionau dei Calancas", "public_transport": "stop_position", "source:name:oc": "ieo-bdtopoc"}}, {"type": "node", "id": 308240295, "lat": 43.2349345, "lon": 5.3992499, "tags": {"bus": "yes", "name": "Sormiou Jarre", "name:oc": "Sormiu - Croisa", "public_transport": "stop_position", "source:name:oc": "ieo-bdtopoc"}}, {"type": "node", "id": 308240452, "lat": 43.2343454, "lon": 5.3992729, "tags": {"bus": "yes", "name": "Sormiou Jarre", "name:oc": "Sormiu - Jarra", "public_transport": "stop_position", "source:name:oc": "ieo-bdtopoc"}}, {"type": "node", "id": 308240990, "lat": 43.2365685, "lon": 5.3989794, "tags": {"bus": "yes", "name": "Sormiou Roy d'Espagne", "name:oc": "Sormiu - R\u00e8i d\u2019Espanha", "public_transport": "stop_position", "source:name:oc": "ieo-bdtopoc"}}, {"type": "node", "id": 364617989, "lat": 43.2473618, "lon": 5.3930401, "tags": {"bus": "yes", "name": "Hambourg Lancier", "name:oc": "Amborg - Lancier", "public_transport": "stop_position", "source:name:oc": "ieo-bdtopoc"}}, {"type": "node", "id": 364622818, "lat": 43.2659673, "lon": 5.3950123, "tags": {"bus": "yes", "name": "Michelet Ramon", "name:oc": "Michelet - Ramon", "public_transport": "stop_position", "source:name:oc": "ieo-bdtopoc"}}, {"type": "node", "id": 364622834, "lat": 43.2612485, "lon": 5.3976714, "tags": {"bus": "yes", "name": "Le Corbusier", "name:oc": "Le Corbusier", "public_transport": "stop_position", "source:name:oc": "ieo-bdtopoc"}}, {"type": "node", "id": 364880269, "lat": 43.2493324, "lon": 5.3904137, "tags": {"bus": "yes", "name": "CC Bonneveine", "name:oc": "CC B\u00f2na V\u00e8una", "public_transport": "stop_position", "source:name:oc": "ieo-bdtopoc"}}, {"type": "node", "id": 364880270, "lat": 43.2493198, "lon": 5.3903128, "tags": {"bus": "yes", "name": "CC Bonneveine", "name:oc": "CC B\u00f2na V\u00e8una", "public_transport": "stop_position", "source:name:oc": "ieo-bdtopoc"}}, {"type": "node", "id": 364880328, "lat": 43.2508318, "lon": 5.3895985, "tags": {"bus": "yes", "name": "MAC", "name:oc": "MAC", "public_transport": "stop_position", "source:name:oc": "ieo-bdtopoc"}}, {"type": "node", "id": 364880353, "lat": 43.2545718, "lon": 5.3942345, "tags": {"bus": "yes", "name": "Sainte-Anne Ha\u00effa", "name:oc": "Santa Anna - Haifa", "public_transport": "stop_position", "source:name:oc": "ieo-bdtopoc"}}, {"type": "node", "id": 364880624, "lat": 43.2567017, "lon": 5.3940482, "tags": {"bus": "yes", "name:fr": "Sainte-Anne", "name:oc": "Santa Anna", "public_transport": "stop_position", "source:name:oc": "ieo-bdtopoc"}}, {"type": "node", "id": 364880625, "lat": 43.2592907, "lon": 5.3941389, "tags": {"bus": "yes", "name": "CC Saint-Anne", "name:oc": "CC de Santa Anna", "public_transport": "stop_position", "source:name:oc": "ieo-bdtopoc"}}, {"type": "node", "id": 401866091, "lat": 43.2528824, "lon": 5.4219315, "tags": {"bus": "yes", "name": "La Rouvi\u00e8re", "name:oc": "La Roviera", "public_transport": "stop_position", "source:name:oc": "ieo-bdtopoc"}}, {"type": "node", "id": 401867676, "lat": 43.2615256, "lon": 5.41469, "tags": {"bus": "yes", "name": "Grand Pr\u00e9", "name:oc": "Grand  Prat", "public_transport": "stop_position"}}, {"type": "node", "id": 401867682, "lat": 43.2632155, "lon": 5.4112076, "tags": {"bus": "yes", "name": "Salvator Paoli Calmettes", "name:oc": "Salvator - Paoli-Calmetas", "public_transport": "stop_position", "source:name:oc": "ieo-bdtopoc", "survey:date": "2023-06-08"}}, {"type": "node", "id": 401867683, "lat": 43.2634624, "lon": 5.4108407, "tags": {"bus": "yes", "name": "Salvator Paoli Calmettes", "name:oc": "Salvator - Paoli-Calmetas", "public_transport": "stop_position", "source:name:oc": "ieo-bdtopoc", "survey:date": "2023-06-08"}}, {"type": "node", "id": 401867688, "lat": 43.2653479, "lon": 5.4088407, "tags": {"bus": "yes", "name": "Antide Boyer", "name:oc": "Antida Boier", "public_transport": "stop_position", "survey:date": "2023-06-08"}}, {"type": "node", "id": 485381977, "lat": 43.2320303, "lon": 5.4023671, "tags": {"bus": "yes", "name": "Terrasses de Sormiou", "name:oc": "Terrasssas de Sormiu", "public_transport": "stop_position", "source:name:oc": "ieo-bdtopoc"}}, {"type": "node", "id": 500880435, "lat": 43.2534691, "lon": 5.4085533, "tags": {"bus": "yes", "name": "Aiguier Saint-Jacques", "name:oc": "Aiguier - Sant Jaume", "operator": "RTM", "public_transport": "stop_position", "source:name:oc": "ieo-bdtopoc"}}, {"type": "node", "id": 500880459, "lat": 43.2505587, "lon": 5.4171444, "tags": {"bus": "yes", "name": "Valmante", "name:oc": "Valmanta", "public_transport": "stop_position"}}, {"type": "node", "id": 503957022, "lat": 43.2574944, "lon": 5.4103187, "tags": {"bus": "yes", "name": "La Gaye", "name:oc": "fixme:Coll\u00e8gi Menu", "public_transport": "stop_position", "source:name:oc": "ieo-bdtopoc"}}, {"type": "node", "id": 507035050, "lat": 43.2743209, "lon": 5.4267846, "tags": {"bus": "yes", "name": "Lyc\u00e9e Perrin Doize", "name:oc": "Lic\u00e8u Perrin Doize", "public_transport": "stop_position"}}, {"type": "node", "id": 507035053, "lat": 43.273627, "lon": 5.4272914, "tags": {"bus": "yes", "name": "R\u00e9sidence du Lyc\u00e9e", "name:oc": "Resid\u00e9ncia dau Lic\u00e8u", "public_transport": "stop_position", "source:name:oc": "ieo-bdtopoc"}}, {"type": "node", "id": 507035054, "lat": 43.2735738, "lon": 5.4273509, "tags": {"bus": "yes", "name": "R\u00e9sidence du Lyc\u00e9e", "name:oc": "Resid\u00e9ncia dau Lic\u00e8u", "public_transport": "stop_position"}}, {"type": "node", "id": 507035213, "lat": 43.268298, "lon": 5.4139413, "tags": {"bus": "yes", "name": "Claudel Mairie 9-10", "name:oc": "Claudel - Comuna 9-10", "public_transport": "stop_position"}}, {"type": "node", "id": 507035223, "lat": 43.2708259, "lon": 5.4080633, "tags": {"bus": "yes", "name": "Romain Rolland Belle Ombre", "name:oc": "Roman Rolland - B\u00e8la Ombra", "public_transport": "stop_position"}}, {"type": "node", "id": 507035227, "lat": 43.273896, "lon": 5.4141552, "tags": {"bus": "yes", "name": "La Sauvag\u00e8re", "name:oc": "La Sauvatgiera", "public_transport": "stop_position"}}, {"type": "node", "id": 672578385, "lat": 43.2433662, "lon": 5.3921522, "tags": {"bus": "yes", "name": "Floralia Le M\u00e9e", "name:oc": "Floraria - Lo Mea", "public_transport": "stop_position", "source:name:oc": "ieo-bdtopoc"}}, {"type": "node", "id": 672578395, "lat": 43.2451417, "lon": 5.3896573, "tags": {"bus": "yes", "name": "Floralia Chiapale", "name:oc": "Floralia - Chiapale", "operator": "RTM", "public_transport": "stop_position", "source:name:oc": "ieo-bdtopoc"}}, {"type": "node", "id": 675393835, "lat": 43.2392639, "lon": 5.4143181, "tags": {"bus": "yes", "name": "La Seigneurie", "name:oc": "La Senhori\u00e1", "public_transport": "stop_position", "source:name:oc": "ieo-bdtopoc"}}, {"type": "node", "id": 742394107, "lat": 43.2324642, "lon": 5.4000397, "tags": {"bench": "no", "bin": "yes", "bus": "yes", "highway": "bus_stop", "lit": "yes", "name": "CC Sormiou", "name:oc": "CC Sormiu", "public_transport": "platform", "shelter": "no", "source": "survey", "source:name:oc": "ieo-bdtopoc", "tactile_paving": "yes"}}, {"type": "node", "id": 742394113, "lat": 43.2292222, "lon": 5.4014948, "tags": {"bench": "no", "bin": "no", "bus": "yes", "highway": "bus_stop", "name": "Sormiou Cayolle", "name:oc": "Sormiu - Calh\u00f2la", "public_transport": "platform", "shelter": "no", "source": "survey", "source:name:oc": "ieo-bdtopoc"}}, {"type": "node", "id": 742394118, "lat": 43.2328116, "lon": 5.4000646, "tags": {"bench": "yes", "bin": "yes", "bus": "yes", "highway": "bus_stop", "lit": "yes", "name": "CC Sormiou", "name:oc": "CC Sormiu", "public_transport": "platform", "shelter": "yes", "source": "survey", "source:name:oc": "ieo-bdtopoc", "tactile_paving": "no", "wheelchair": "yes"}}, {"type": "node", "id": 742394121, "lat": 43.2303054, "lon": 5.4010781, "tags": {"bench": "yes", "bin": "no", "bus": "yes", "highway": "bus_stop", "lit": "yes", "name": "Sormiou Cayolle", "name:oc": "Sormiu - Calh\u00f2la", "public_transport": "platform", "shelter": "no", "source": "survey", "source:name:oc": "ieo-bdtopoc", "tactile_paving": "yes", "wheelchair": "yes"}}, {"type": "node", "id": 774087007, "lat": 43.2567146, "lon": 5.4272503, "tags": {"bench": "yes", "bus": "yes", "highway": "bus_stop", "name": "La Panouse", "name:oc": "La Panosa", "public_transport": "platform", "shelter": "yes"}}, {"type": "node", "id": 789380788, "lat": 43.241293, "lon": 5.3943664, "tags": {"bus": "yes", "name": "Floralia", "name:oc": "Floralia", "public_transport": "stop_position", "source:name:oc": "ieo-bdtopoc"}}, {"type": "node", "id": 789380793, "lat": 43.241522, "lon": 5.3961505, "tags": {"bus": "yes", "name": "Coll\u00e8ge Roy d'Espagne", "name:oc": "Collegi Dau R\u00e8i d\u2019Espanha", "public_transport": "stop_position", "source:name:oc": "ieo-bdtopoc"}}, {"type": "node", "id": 789380794, "lat": 43.2415996, "lon": 5.3964533, "tags": {"bus": "yes", "name": "Coll\u00e8ge Roy d'Espagne", "name:oc": "Collegi Dau R\u00e8i d\u2019Espanha", "public_transport": "stop_position", "source:name:oc": "ieo-bdtopoc"}}, {"type": "node", "id": 790305742, "lat": 43.2458331, "lon": 5.3925685, "tags": {"bus": "yes", "name": "Zenatti Lyc\u00e9e", "name:oc": "Zenatti - Lic\u00e8u", "public_transport": "stop_position", "source:name:oc": "ieo-bdtopoc"}}, {"type": "node", "id": 790305745, "lat": 43.2458044, "lon": 5.3937764, "tags": {"bus": "yes", "name": "Zenatti Lyc\u00e9e", "name:oc": "Zenatti - Lic\u00e8u", "public_transport": "stop_position", "source:name:oc": "ieo-bdtopoc"}}, {"type": "node", "id": 797801563, "lat": 43.2657257, "lon": 5.4242379, "tags": {"bus": "yes", "name": "La Clairi\u00e8re", "name:oc": "L'Esclargiera", "operator": "RTM", "public_transport": "stop_position"}}, {"type": "node", "id": 804194301, "lat": 43.2514766, "lon": 5.4031826, "tags": {"bus": "yes", "name": "Ob\u00e9lisque", "name:oc": "Obelisc", "public_transport": "stop_position", "source:name:oc": "ieo-bdtopoc"}}, {"type": "node", "id": 1327850403, "lat": 43.2592869, "lon": 5.3940593, "tags": {"bench": "no", "bin": "yes", "bus": "yes", "highway": "bus_stop", "lit": "yes", "name": "CC Saint-Anne", "name:oc": "CC de Santa Anna", "public_transport": "platform", "shelter": "no", "source:name:oc": "ieo-bdtopoc", "tactile_paving": "no"}}, {"type": "node", "id": 1327850417, "lat": 43.2611742, "lon": 5.3937582, "tags": {"bench": "no", "bin": "no", "bus": "yes", "highway": "bus_stop", "lit": "yes", "name": "Reggio", "name:oc": "Reggio", "public_transport": "platform", "shelter": "no", "source:name:oc": "ieo-bdtopoc", "tactile_paving": "no"}}, {"type": "node", "id": 1327850435, "lat": 43.261096, "lon": 5.3936189, "tags": {"bench": "yes", "bin": "yes", "bus": "yes", "highway": "bus_stop", "lit": "no", "name": "Reggio", "name:oc": "Reggio", "public_transport": "platform", "shelter": "yes", "source:name:oc": "ieo-bdtopoc", "tactile_paving": "no"}}, {"type": "node", "id": 1327850438, "lat": 43.2593124, "lon": 5.3942368, "tags": {"bench": "yes", "bin": "yes", "bus": "yes", "highway": "bus_stop", "lit": "yes", "name": "CC Saint-Anne", "name:oc": "CC de Santa Anna", "public_transport": "platform", "shelter": "yes", "source:name:oc": "ieo-bdtopoc", "tactile_paving": "no"}}, {"type": "node", "id": 1334342124, "lat": 43.2585409, "lon": 5.3983053, "tags": {"bench": "no", "bus": "yes", "highway": "bus_stop", "name": "Luce Michelet", "name:oc": "L\u00facia - Michelet", "public_transport": "platform", "shelter": "no", "source:name:oc": "ieo-bdtopoc", "wheelchair": "no"}}, {"type": "node", "id": 1334342126, "lat": 43.2504863, "lon": 5.3956145, "tags": {"bench": "no", "bin": "no", "bus": "yes", "highway": "bus_stop", "lit": "no", "name": "Mazargues L\u00e8gre", "name:oc": "Marsangues - L\u00e8gre", "public_transport": "platform", "shelter": "no", "source:name:oc": "ieo-bdtopoc", "tactile_paving": "no"}}, {"type": "node", "id": 1334342127, "lat": 43.2566422, "lon": 5.3946053, "tags": {"bench": "no", "bin": "no", "bus": "yes", "highway": "bus_stop", "lit": "yes", "name": "Sainte-Anne", "name:oc": "Santa Anna", "public_transport": "platform", "shelter": "no", "source:name:oc": "ieo-bdtopoc", "tactile_paving": "no"}}, {"type": "node", "id": 1334342128, "lat": 43.2525345, "lon": 5.3946789, "tags": {"bench": "no", "bus": "yes", "highway": "bus_stop", "name": "L'Aillaude", "name:oc": "L'Alhauda", "public_transport": "platform", "shelter": "no", "source:name:oc": "ieo-bdtopoc"}}, {"type": "node", "id": 1334342129, "lat": 43.2576982, "lon": 5.3972445, "tags": {"bench": "no", "bus": "yes", "highway": "bus_stop", "name": "Isaac Luce", "name:oc": "Ishaq - L\u00facia", "public_transport": "platform", "shelter": "no", "source:name:oc": "ieo-bdtopoc"}}, {"type": "node", "id": 1334342130, "lat": 43.2580797, "lon": 5.3967416, "tags": {"bench": "yes", "bin": "yes", "bus": "yes", "highway": "bus_stop", "name": "Luce Isaac", "name:oc": "L\u00facia - Ishaq", "public_transport": "platform", "shelter": "no", "source:name:oc": "ieo-bdtopoc"}}, {"type": "node", "id": 1347031530, "lat": 43.2501361, "lon": 5.4029686, "tags": {"bench": "no", "bin": "no", "bus": "yes", "highway": "bus_stop", "name": "Concorde Ob\u00e9lisque", "name:oc": "Conc\u00f2rdia - Obelisc", "public_transport": "platform", "shelter": "no", "source:name:oc": "ieo-bdtopoc", "tactile_paving": "no"}}, {"type": "node", "id": 1347031558, "lat": 43.2468857, "lon": 5.3963284, "tags": {"bench": "yes", "bus": "yes", "highway": "bus_stop", "name": "Le Lancier", "name:oc": "Lo Lancier", "public_transport": "platform", "shelter": "yes", "source:name:oc": "ieo-bdtopoc"}}, {"type": "node", "id": 1347031596, "lat": 43.2524213, "lon": 5.3945703, "tags": {"bench": "no", "bin": "yes", "bus": "yes", "comment": "< occitan Bastida deis Alhauds", "highway": "bus_stop", "name": "L'Aillaude", "name:oc": "L'Alhauda", "public_transport": "platform", "shelter": "no", "source:name:oc": "ieo-bdtopoc"}}, {"type": "node", "id": 1347031600, "lat": 43.2612192, "lon": 5.3975678, "tags": {"bench": "yes", "bin": "yes", "bus": "yes", "highway": "bus_stop", "lit": "no", "name": "Le Corbusier", "name:oc": "Le Corbusier", "public_transport": "platform", "shelter": "yes", "source:name:oc": "ieo-bdtopoc", "tactile_paving": "no", "wheelchair": "no"}}, {"type": "node", "id": 1347031614, "lat": 43.2632811, "lon": 5.3965246, "tags": {"bus": "yes", "name": "Michelet Bousquet", "name:oc": "Michelet - Bosquet", "public_transport": "stop_position", "source:name:oc": "ieo-bdtopoc"}}, {"type": "node", "id": 1347031629, "lat": 43.2544553, "lon": 5.3943631, "tags": {"bench": "yes", "bin": "no", "bus": "yes", "highway": "bus_stop", "name": "Sainte-Anne Ha\u00effa", "name:oc": "Santa Anna - Haifa", "public_transport": "platform", "shelter": "yes", "source:name:oc": "ieo-bdtopoc"}}, {"type": "node", "id": 1347031646, "lat": 43.2531345, "lon": 5.3927499, "tags": {"bench": "no", "bin": "yes", "bus": "yes", "highway": "bus_stop", "lit": "no", "name": "Ha\u00effa Ollivary", "name:oc": "Haifa - Ollivari", "public_transport": "platform", "shelter": "no", "source:name:oc": "ieo-bdtopoc", "tactile_paving": "no"}}, {"type": "node", "id": 1347031664, "lat": 43.2508655, "lon": 5.389547, "tags": {"bench": "yes", "bin": "yes", "bus": "yes", "highway": "bus_stop", "name": "MAC", "name:oc": "MAC", "public_transport": "platform", "shelter": "yes", "source:name:oc": "ieo-bdtopoc", "tactile_paving": "yes", "wheelchair": "yes"}}, {"type": "node", "id": 1347031672, "lat": 43.2501229, "lon": 5.402995, "tags": {"bus": "yes", "name": "Concorde Ob\u00e9lisque", "name:oc": "Conc\u00f2rdia - Obelisc", "public_transport": "stop_position", "source:name:oc": "ieo-bdtopoc"}}, {"type": "node", "id": 1347031673, "lat": 43.2474015, "lon": 5.3931024, "tags": {"bench": "yes", "bin": "yes", "bus": "yes", "highway": "bus_stop", "lit": "yes", "name": "Hambourg Lancier", "name:oc": "Amborg - Lancier", "public_transport": "platform", "shelter": "yes", "source:name:oc": "ieo-bdtopoc", "tactile_paving": "no"}}, {"type": "node", "id": 1347031674, "lat": 43.2483536, "lon": 5.4012851, "tags": {"bench": "no", "bus": "yes", "highway": "bus_stop", "name": "Magdelon", "name:oc": "Magdelon", "public_transport": "platform", "shelter": "no", "source:name:oc": "ieo-bdtopoc"}}, {"type": "node", "id": 1347031684, "lat": 43.2467217, "lon": 5.3958029, "tags": {"bench": "no", "bus": "yes", "highway": "bus_stop", "name": "Le Lancier", "name:oc": "Lo Lancier", "public_transport": "platform", "shelter": "no", "source:name:oc": "ieo-bdtopoc"}}, {"type": "node", "id": 1347031691, "lat": 43.2568856, "lon": 5.4001332, "tags": {"bus": "yes", "name": "Michelet Taine", "name:oc": "Michelet - Taine", "public_transport": "stop_position"}}, {"type": "node", "id": 1347031694, "lat": 43.2537607, "lon": 5.4017725, "tags": {"bench": "yes", "bus": "yes", "highway": "bus_stop", "name": "Michelet Bonneaude", "name:oc": "Michelet - Bonnauda", "public_transport": "platform", "shelter": "yes", "tactile_paving": "no", "wheelchair": "no"}}, {"type": "node", "id": 1347031695, "lat": 43.2633762, "lon": 5.3965928, "tags": {"bench": "yes", "bin": "yes", "bus": "yes", "highway": "bus_stop", "lit": "yes", "name": "Michelet Bousquet", "name:oc": "Michelet - Bosquet", "public_transport": "platform", "shelter": "yes", "source:name:oc": "ieo-bdtopoc", "tactile_paving": "no", "wheelchair": "no"}}, {"type": "node", "id": 1347031699, "lat": 43.2466977, "lon": 5.3958436, "tags": {"bus": "yes", "name": "Le Lancier", "name:oc": "Lo Lancier", "public_transport": "stop_position", "source:name:oc": "ieo-bdtopoc"}}, {"type": "node", "id": 1347031702, "lat": 43.2533099, "lon": 5.3932498, "tags": {"bench": "yes", "bus": "yes", "highway": "bus_stop", "name": "Ha\u00effa Ollivary", "name:oc": "Haifa - Ollivari", "public_transport": "platform", "shelter": "yes", "source:name:oc": "ieo-bdtopoc"}}, {"type": "node", "id": 1347031710, "lat": 43.2509065, "lon": 5.3900275, "tags": {"bench": "yes", "bin": "no", "bus": "yes", "highway": "bus_stop", "lit": "yes", "name": "MAC", "name:oc": "MAC", "public_transport": "platform", "shelter": "yes", "source:name:oc": "ieo-bdtopoc", "tactile_paving": "yes", "wheelchair": "yes"}}, {"type": "node", "id": 1347031711, "lat": 43.265994, "lon": 5.3951262, "tags": {"bench": "yes", "bin": "no", "bus": "yes", "highway": "bus_stop", "lit": "yes", "name": "Michelet Ramon", "name:oc": "Michelet - Ramon", "public_transport": "platform", "shelter": "yes", "source:name:oc": "ieo-bdtopoc", "tactile_paving": "no", "wheelchair": "no"}}, {"type": "node", "id": 1347031713, "lat": 43.2472396, "lon": 5.3929816, "tags": {"bench": "yes", "bin": "no", "bus": "yes", "highway": "bus_stop", "lit": "yes", "name": "Hambourg Lancier", "name:oc": "Amborg - Lancier", "public_transport": "platform", "shelter": "yes", "source:name:oc": "ieo-bdtopoc", "tactile_paving": "no"}}, {"type": "node", "id": 1347031718, "lat": 43.2591615, "lon": 5.3988504, "tags": {"bus": "yes", "name": "Michelet Luce", "name:oc": "Michelet - L\u00facia", "public_transport": "stop_position", "source:name:oc": "ieo-bdtopoc"}}, {"type": "node", "id": 1347031719, "lat": 43.2546255, "lon": 5.3941294, "tags": {"bench": "no", "bin": "yes", "bus": "yes", "highway": "bus_stop", "lit": "yes", "name": "Sainte-Anne Ha\u00effa", "name:oc": "Santa Anna - Haifa", "public_transport": "platform", "shelter": "no", "source:name:oc": "ieo-bdtopoc", "tactile_paving": "yes"}}, {"type": "node", "id": 1347031722, "lat": 43.2483742, "lon": 5.4012344, "tags": {"bus": "yes", "name": "Magdelon", "name:oc": "Magdelon", "public_transport": "stop_position", "source:name:oc": "ieo-bdtopoc"}}, {"type": "node", "id": 1347031725, "lat": 43.2533522, "lon": 5.3931906, "tags": {"bus": "yes", "name": "Ha\u00effa Ollivary", "name:oc": "Haifa - Ollivari", "operator": "RTM", "public_transport": "stop_position", "source:name:oc": "ieo-bdtopoc"}}, {"type": "node", "id": 1347031730, "lat": 43.2628981, "lon": 5.3966118, "tags": {"bench": "yes", "bin": "yes", "bus": "yes", "highway": "bus_stop", "lit": "yes", "name": "Michelet Bousquet", "name:oc": "Michelet - Bosquet", "public_transport": "platform", "shelter": "yes", "source:name:oc": "ieo-bdtopoc", "tactile_paving": "no", "wheelchair": "no"}}, {"type": "node", "id": 1347031734, "lat": 43.250329, "lon": 5.4032017, "tags": {"bus": "yes", "name": "Concorde Ob\u00e9lisque", "name:oc": "Conc\u00f2rdia - Obelisc", "public_transport": "stop_position", "source:name:oc": "ieo-bdtopoc"}}, {"type": "node", "id": 1347031743, "lat": 43.2510832, "lon": 5.4032705, "tags": {"bench": "yes", "bin": "yes", "bus": "yes", "highway": "bus_stop", "name": "Ob\u00e9lisque", "name:oc": "Obelisc", "public_transport": "platform", "shelter": "yes", "source:name:oc": "ieo-bdtopoc", "tactile_paving": "no", "wheelchair": "no"}}, {"type": "node", "id": 1347031744, "lat": 43.2485981, "lon": 5.4014609, "tags": {"bus": "yes", "name": "Magdelon", "name:oc": "Magdelon", "public_transport": "stop_position", "source:name:oc": "ieo-bdtopoc"}}, {"type": "node", "id": 1347031746, "lat": 43.2525389, "lon": 5.3946229, "tags": {"bus": "yes", "name": "L'Aillaude", "name:oc": "L'Alhauda", "public_transport": "stop_position", "source:name:oc": "ieo-bdtopoc"}}, {"type": "node", "id": 1347031748, "lat": 43.2538427, "lon": 5.4019667, "tags": {"bench": "yes", "bin": "no", "bus": "yes", "highway": "bus_stop", "lit": "yes", "name": "Michelet Bonneaude", "name:oc": "Michelet - Bonnauda", "public_transport": "platform", "shelter": "yes", "tactile_paving": "no", "wheelchair": "no"}}, {"type": "node", "id": 1347031749, "lat": 43.2515559, "lon": 5.4032638, "tags": {"bench": "yes", "bin": "yes", "bus": "yes", "highway": "bus_stop", "lit": "yes", "name": "Ob\u00e9lisque", "name:oc": "Obelisc", "public_transport": "platform", "shelter": "yes", "source:name:oc": "ieo-bdtopoc", "tactile_paving": "no", "wheelchair": "no"}}, {"type": "node", "id": 1347031759, "lat": 43.2569624, "lon": 5.4002077, "tags": {"bench": "yes", "bin": "yes", "bus": "yes", "highway": "bus_stop", "lit": "yes", "name": "Michelet Taine", "name:oc": "Michelet - Taine", "public_transport": "platform", "shelter": "yes", "tactile_paving": "no", "wheelchair": "no"}}, {"type": "node", "id": 1347031761, "lat": 43.2587074, "lon": 5.3991054, "tags": {"bus": "yes", "name": "Michelet Luce", "name:oc": "Michelet - L\u00facia", "public_transport": "stop_position", "source:name:oc": "ieo-bdtopoc"}}, {"type": "node", "id": 1347031765, "lat": 43.2486808, "lon": 5.3977432, "tags": {"bench": "no", "bin": "no", "bus": "yes", "highway": "bus_stop", "name": "Jardin Bortoli", "name:oc": "Jardin Bort\u00f2li", "public_transport": "platform", "shelter": "no", "source:name:oc": "ieo-bdtopoc", "tactile_paving": "no"}}, {"type": "node", "id": 1347031766, "lat": 43.2469122, "lon": 5.3962695, "tags": {"bus": "yes", "name": "Le Lancier", "name:oc": "Lo Lancier", "operator": "RTM", "public_transport": "stop_position", "source:name:oc": "ieo-bdtopoc"}}, {"type": "node", "id": 1347031769, "lat": 43.2524282, "lon": 5.3946278, "tags": {"bus": "yes", "name": "L'Aillaude", "name:oc": "L'Alhauda", "public_transport": "stop_position", "source:name:oc": "ieo-bdtopoc"}}, {"type": "node", "id": 1347031770, "lat": 43.2616923, "lon": 5.3975458, "tags": {"bench": "yes", "bin": "yes", "bus": "yes", "highway": "bus_stop", "lit": "yes", "name": "Le Corbusier", "name:oc": "Le Corbusier", "public_transport": "platform", "shelter": "yes", "source:name:oc": "ieo-bdtopoc", "tactile_paving": "no", "wheelchair": "no"}}, {"type": "node", "id": 1347031773, "lat": 43.2503235, "lon": 5.3956429, "tags": {"bench": "no", "bin": "yes", "bus": "yes", "highway": "bus_stop", "name": "Mazargues L\u00e8gre", "name:oc": "Marsangues - L\u00e8gre", "public_transport": "platform", "shelter": "no", "source:name:oc": "ieo-bdtopoc"}}, {"type": "node", "id": 1347031778, "lat": 43.2564906, "lon": 5.400234, "tags": {"bench": "yes", "bin": "no", "bus": "yes", "highway": "bus_stop", "lit": "yes", "name": "Michelet Taine", "name:oc": "Michelet - Taine", "public_transport": "platform", "shelter": "yes", "tactile_paving": "no", "wheelchair": "no"}}, {"type": "node", "id": 1347031784, "lat": 43.2545018, "lon": 5.3942596, "tags": {"bus": "yes", "name": "Sainte-Anne Ha\u00effa", "name:oc": "Santa Anna - Haifa", "public_transport": "stop_position", "source:name:oc": "ieo-bdtopoc"}}, {"type": "node", "id": 1347031786, "lat": 43.2530978, "lon": 5.3927998, "tags": {"bus": "yes", "name": "Ha\u00effa Ollivary", "name:oc": "Haifa - Ollivari", "operator": "RTM", "public_transport": "stop_position", "source:name:oc": "ieo-bdtopoc"}}, {"type": "node", "id": 1347031787, "lat": 43.2503497, "lon": 5.3956973, "tags": {"bus": "yes", "name": "Mazargues L\u00e8gre", "name:oc": "Marsangues - L\u00e8gre", "public_transport": "stop_position", "source:name:oc": "ieo-bdtopoc"}}, {"type": "node", "id": 1347031792, "lat": 43.2567533, "lon": 5.3940134, "tags": {"bench": "no", "bin": "yes", "bus": "yes", "highway": "bus_stop", "lit": "yes", "name": "Sainte Anne", "name:oc": "Santa Anna", "public_transport": "platform", "shelter": "no", "source:name:oc": "ieo-bdtopoc", "tactile_paving": "yes"}}, {"type": "node", "id": 1347031795, "lat": 43.25923, "lon": 5.3989382, "tags": {"bench": "yes", "bin": "no", "bus": "yes", "highway": "bus_stop", "lit": "yes", "name": "Michelet Luce", "name:oc": "Michelet - L\u00facia", "public_transport": "platform", "shelter": "yes", "source:name:oc": "ieo-bdtopoc", "tactile_paving": "no", "wheelchair": "no"}}, {"type": "node", "id": 1347031798, "lat": 43.2511162, "lon": 5.4033893, "tags": {"bus": "yes", "name": "Ob\u00e9lisque", "name:oc": "Obelisc", "public_transport": "stop_position", "source:name:oc": "ieo-bdtopoc"}}, {"type": "node", "id": 1347031806, "lat": 43.2492911, "lon": 5.3902715, "tags": {"bench": "yes", "bin": "yes", "bus": "yes", "highway": "bus_stop", "name": "CC Bonneveine", "name:oc": "CC B\u00f2na V\u00e8una", "public_transport": "platform", "shelter": "yes", "source:name:oc": "ieo-bdtopoc"}}, {"type": "node", "id": 1347031807, "lat": 43.2565511, "lon": 5.400323, "tags": {"bus": "yes", "name": "Michelet Taine", "name:oc": "Michelet - Taine", "public_transport": "stop_position"}}, {"type": "node", "id": 1347031809, "lat": 43.2538039, "lon": 5.4018734, "tags": {"bus": "yes", "name": "Michelet Bonneaude", "name:oc": "Michelet - Bonnauda", "public_transport": "stop_position"}}, {"type": "node", "id": 1347031813, "lat": 43.2615627, "lon": 5.3974942, "tags": {"bus": "yes", "name": "Le Corbusier", "name:oc": "Le Corbusier", "public_transport": "stop_position", "source:name:oc": "ieo-bdtopoc"}}, {"type": "node", "id": 1347031818, "lat": 43.2629261, "lon": 5.396725, "tags": {"bus": "yes", "name": "Michelet Bousquet", "name:oc": "Michelet - Bosquet", "public_transport": "stop_position", "source:name:oc": "ieo-bdtopoc"}}, {"type": "node", "id": 1347031819, "lat": 43.2503019, "lon": 5.4032574, "tags": {"bench": "no", "bin": "yes", "bus": "yes", "highway": "bus_stop", "name": "Concorde Ob\u00e9lisque", "name:oc": "Conc\u00f2rdia - Obelisc", "public_transport": "platform", "shelter": "no", "source:name:oc": "ieo-bdtopoc", "tactile_paving": "no"}}, {"type": "node", "id": 1347031823, "lat": 43.2569726, "lon": 5.3941863, "tags": {"bench": "no", "bin": "yes", "bus": "yes", "highway": "bus_stop", "lit": "yes", "name": "Ste Anne", "public_transport": "platform", "shelter": "no", "source:name:oc": "ieo-bdtopoc", "tactile_paving": "yes"}}, {"type": "node", "id": 1347031827, "lat": 43.2493559, "lon": 5.3904566, "tags": {"bench": "yes", "bin": "yes", "bus": "yes", "highway": "bus_stop", "name": "CC Bonneveine", "name:oc": "CC B\u00f2na V\u00e8una", "public_transport": "platform", "shelter": "yes", "source:name:oc": "ieo-bdtopoc"}}, {"type": "node", "id": 1347031831, "lat": 43.2486127, "lon": 5.4014192, "tags": {"bench": "no", "bus": "yes", "highway": "bus_stop", "name": "Magdelon", "name:oc": "Magdelon", "public_transport": "platform", "shelter": "no", "source:name:oc": "ieo-bdtopoc"}}, {"type": "node", "id": 1347031834, "lat": 43.2487779, "lon": 5.3978378, "tags": {"bench": "no", "bus": "yes", "highway": "bus_stop", "name": "Jardin Bortoli", "name:oc": "Jardin Bortoli", "public_transport": "platform", "shelter": "no", "source:name:oc": "ieo-bdtopoc"}}, {"type": "node", "id": 1347031837, "lat": 43.2504632, "lon": 5.3955722, "tags": {"bus": "yes", "name": "Mazargues L\u00e8gre", "name:oc": "Marsangues - Legre", "public_transport": "stop_position", "source:name:oc": "ieo-bdtopoc"}}, {"type": "node", "id": 1347031841, "lat": 43.2659543, "lon": 5.3948937, "tags": {"bench": "yes", "bin": "yes", "bus": "yes", "highway": "bus_stop", "lit": "yes", "name": "Michelet Ramon", "name:oc": "Michelet - Ramon", "public_transport": "platform", "shelter": "yes", "source:name:oc": "ieo-bdtopoc", "tactile_paving": "no", "wheelchair": "no"}}, {"type": "node", "id": 1352485299, "lat": 43.2425504, "lon": 5.4063542, "tags": {"bus": "yes", "name": "Morgiou Seigneurie", "name:oc": "Morgiu - Senhori\u00e1", "operator": "RTM", "public_transport": "stop_position", "source:name:oc": "ieo-bdtopoc"}}, {"type": "node", "id": 1352668611, "lat": 43.2285848, "lon": 5.4153052, "tags": {"bus": "yes", "name": "Morgiou Arnaud", "name:oc": "Morgiu - Arnaud", "public_transport": "stop_position", "source:name:oc": "ieo-bdtopoc"}}, {"type": "node", "id": 1377484611, "lat": 43.2460915, "lon": 5.3987582, "tags": {"bench": "yes", "bin": "yes", "bus": "yes", "highway": "bus_stop", "lit": "yes", "name": "Barqui\u00e8re Martheline", "name:oc": "Barquiera - Martelina", "public_transport": "platform", "shelter": "yes", "tactile_paving": "yes"}}, {"type": "node", "id": 1377484614, "lat": 43.2405967, "lon": 5.4010843, "tags": {"bench": "yes", "bin": "no", "bus": "yes", "highway": "bus_stop", "name": "Oc\u00e9an Pistou", "name:oc": "Ocean - Pisto", "public_transport": "platform", "shelter": "yes", "source:name:oc": "ieo-bdtopoc"}}, {"type": "node", "id": 1377484622, "lat": 43.2445523, "lon": 5.4000011, "tags": {"bench": "yes", "bin": "yes", "bus": "yes", "highway": "bus_stop", "name": "Soude R\u00e9ginensi", "name:oc": "Souda - Reginensi", "public_transport": "platform", "shelter": "yes", "source:name:oc": "ieo-bdtopoc"}}, {"type": "node", "id": 1377484623, "lat": 43.242577, "lon": 5.4028874, "tags": {"bench": "yes", "bin": "yes", "bus": "yes", "highway": "bus_stop", "lit": "yes", "name": "Soude Pom\u00e9on", "name:oc": "Souda - Pomeon", "public_transport": "platform", "shelter": "yes", "source:name:oc": "ieo-bdtopoc", "tactile_paving": "yes"}}, {"type": "node", "id": 1377484624, "lat": 43.2407062, "lon": 5.4021733, "tags": {"bench": "no", "bin": "no", "bus": "yes", "highway": "bus_stop", "lit": "yes", "name": "Oc\u00e9an Pistou", "name:oc": "Ocean - Pisto", "public_transport": "platform", "shelter": "no", "source:name:oc": "ieo-bdtopoc", "tactile_paving": "no"}}, {"type": "node", "id": 1418007742, "lat": 43.2425495, "lon": 5.4028381, "tags": {"bus": "yes", "name": "Soude Pom\u00e9on", "name:oc": "Souda - Pomeon", "public_transport": "stop_position", "source:name:oc": "ieo-bdtopoc"}}, {"type": "node", "id": 1429310242, "lat": 43.2340376, "lon": 5.4120189, "tags": {"bench": "no", "bin": "yes", "bus": "yes", "departures_board": "timetable", "highway": "bus_stop", "name": "Beauvallon", "name:oc": "Beuvalon", "public_transport": "platform", "shelter": "no", "source:name:oc": "ieo-bdtopoc", "tactile_paving": "no"}}, {"type": "node", "id": 1429310258, "lat": 43.2340351, "lon": 5.411941, "tags": {"bus": "yes", "name": "Beauvallon", "name:oc": "Beuvalon", "public_transport": "stop_position", "source:name:oc": "ieo-bdtopoc"}}, {"type": "node", "id": 1429310261, "lat": 43.2307369, "lon": 5.4142621, "tags": {"bench": "yes", "bin": "yes", "bus": "yes", "highway": "bus_stop", "lit": "yes", "name": "Baumettes Rimbaud", "name:oc": "Baumetas - Rimbaud", "public_transport": "platform", "shelter": "yes", "source:name:oc": "ieo-bdtopoc", "tactile_paving": "no"}}, {"type": "node", "id": 1429310267, "lat": 43.2283289, "lon": 5.4153248, "tags": {"bench": "no", "bin": "yes", "bus": "yes", "highway": "bus_stop", "lit": "yes", "name": "Morgiou Arnaud", "name:oc": "Morgiu - Arnaud", "public_transport": "platform", "shelter": "no", "source:name:oc": "ieo-bdtopoc", "tactile_paving": "no", "wheelchair": "limited"}}, {"type": "node", "id": 1429310269, "lat": 43.2263161, "lon": 5.4163903, "tags": {"bus": "yes", "name": "Les Baumettes", "name:oc": "Lei Baumetas", "public_transport": "stop_position", "source:name:oc": "ieo-bdtopoc"}}, {"type": "node", "id": 1429310272, "lat": 43.2338081, "lon": 5.4124594, "tags": {"bus": "yes", "name": "Rabat Baumettes", "name:oc": "Rabat - Baumetas", "public_transport": "stop_position", "source:name:oc": "ieo-bdtopoc"}}, {"type": "node", "id": 1429310274, "lat": 43.2330427, "lon": 5.4125559, "tags": {"bench": "no", "bus": "yes", "highway": "bus_stop", "name": "Baumettes Beauvallon", "name:oc": "Baumetas - Beuvalon", "public_transport": "platform", "shelter": "no", "source:name:oc": "ieo-bdtopoc"}}, {"type": "node", "id": 1429310275, "lat": 43.2340896, "lon": 5.4119832, "tags": {"bench": "no", "bin": "no", "bus": "yes", "departures_board": "timetable", "highway": "bus_stop", "name": "Beauvallon", "name:oc": "Beuvalon", "public_transport": "platform", "shelter": "no", "source:name:oc": "ieo-bdtopoc", "tactile_paving": "no"}}, {"type": "node", "id": 1429310287, "lat": 43.2306055, "lon": 5.4141478, "tags": {"bench": "no", "bin": "yes", "bus": "yes", "highway": "bus_stop", "name": "Baumettes Rimbaud", "name:oc": "Baumetas - Rimbaud", "public_transport": "platform", "shelter": "no", "source:name:oc": "ieo-bdtopoc", "tactile_paving": "no"}}, {"type": "node", "id": 1429310288, "lat": 43.2349808, "lon": 5.4111441, "tags": {"bus": "yes", "name": "Morgiou Beauvallon", "name:oc": "Morgiu - Beuvalon", "public_transport": "stop_position", "source:name:oc": "ieo-bdtopoc"}}, {"type": "node", "id": 1429310289, "lat": 43.2338035, "lon": 5.4125209, "tags": {"bench": "no", "bus": "yes", "highway": "bus_stop", "name": "Rabat Baumettes", "name:oc": "Rabat - Baumetas", "public_transport": "platform", "shelter": "no", "source:name:oc": "ieo-bdtopoc"}}, {"type": "node", "id": 1429310296, "lat": 43.2262611, "lon": 5.4164155, "tags": {"bench": "yes", "bin": "no", "bus": "yes", "departures_board": "timetable", "highway": "bus_stop", "lit": "yes", "name": "Les Baumettes", "name:oc": "Lei Baumetas", "public_transport": "platform", "shelter": "yes", "source:name:oc": "ieo-bdtopoc", "tactile_paving": "no", "wheelchair": "limited"}}, {"type": "node", "id": 1429310297, "lat": 43.233137, "lon": 5.412575, "tags": {"bus": "yes", "name": "Baumettes Beauvallon", "name:oc": "Baumetas - Beuvalon", "public_transport": "stop_position", "source:name:oc": "ieo-bdtopoc"}}, {"type": "node", "id": 1429310300, "lat": 43.2286188, "lon": 5.4154305, "tags": {"bench": "no", "bus": "yes", "highway": "bus_stop", "name": "Morgiou Arnaud", "name:oc": "Morgiu - Arnaud", "public_transport": "platform", "shelter": "no", "source:name:oc": "ieo-bdtopoc"}}, {"type": "node", "id": 1429310302, "lat": 43.2349433, "lon": 5.4110767, "tags": {"bench": "no", "bin": "yes", "bus": "yes", "highway": "bus_stop", "name": "Morgiou Beauvallon", "name:oc": "Morgiu - Beuvalon", "public_transport": "platform", "shelter": "no", "source:name:oc": "ieo-bdtopoc"}}, {"type": "node", "id": 1429310307, "lat": 43.2306476, "lon": 5.4142211, "tags": {"bus": "yes", "name": "Baumettes Rimbaud", "name:oc": "Baumetas - Rimbaud", "public_transport": "stop_position", "source:name:oc": "ieo-bdtopoc"}}, {"type": "node", "id": 1450692381, "lat": 43.246059, "lon": 5.3985185, "tags": {"bench": "no", "bin": "yes", "bus": "yes", "highway": "bus_stop", "name": "Barqui\u00e8re Martheline", "name:oc": "Barquiera - Martelina", "public_transport": "platform", "shelter": "no", "source:name:oc": "ieo-bdtopoc", "tactile_paving": "yes"}}, {"type": "node", "id": 1450692382, "lat": 43.2461485, "lon": 5.3987239, "tags": {"bus": "yes", "name": "Barqui\u00e8re Martheline", "name:oc": "Barquiera - Martelina", "public_transport": "stop_position", "source:name:oc": "ieo-bdtopoc"}}, {"type": "node", "id": 1450692383, "lat": 43.2409363, "lon": 5.3970444, "tags": {"bench": "yes", "bin": "no", "bus": "yes", "highway": "bus_stop", "name": "Coll\u00e8ge Roy d'Espagne", "name:oc": "Collegi Dau R\u00e8i d\u2019Espanha", "public_transport": "platform", "shelter": "yes", "source:name:oc": "ieo-bdtopoc"}}, {"type": "node", "id": 1450692384, "lat": 43.2409555, "lon": 5.3971346, "tags": {"bus": "yes", "name": "Coll\u00e8ge Roy d'Espagne", "name:oc": "Collegi Dau R\u00e8i d\u2019Espanha", "operator": "RTM", "public_transport": "stop_position", "source:name:oc": "ieo-bdtopoc"}}, {"type": "node", "id": 1450692388, "lat": 43.2413011, "lon": 5.3971534, "tags": {"bus": "yes", "name": "Coll\u00e8ge Roy d'Espagne", "name:oc": "Collegi Dau R\u00e8i d\u2019Espanha", "public_transport": "stop_position", "source:name:oc": "ieo-bdtopoc"}}, {"type": "node", "id": 1450692389, "lat": 43.2413058, "lon": 5.3972268, "tags": {"bench": "yes", "bin": "no", "bus": "yes", "highway": "bus_stop", "name": "Coll\u00e8ge Roy d'Espagne", "name:oc": "Collegi Dau R\u00e8i d\u2019Espanha", "public_transport": "platform", "shelter": "yes", "source:name:oc": "ieo-bdtopoc"}}, {"type": "node", "id": 1450692390, "lat": 43.2405393, "lon": 5.4010739, "tags": {"bus": "yes", "name": "Oc\u00e9an Pistou", "name:oc": "Ocean - Pisto", "public_transport": "stop_position", "source:name:oc": "ieo-bdtopoc"}}, {"type": "node", "id": 1450692391, "lat": 43.240735, "lon": 5.4021192, "tags": {"bus": "yes", "name": "Oc\u00e9an Pistou", "name:oc": "Ocean - Pisto", "public_transport": "stop_position", "source:name:oc": "ieo-bdtopoc"}}, {"type": "node", "id": 1450692392, "lat": 43.2411436, "lon": 5.3991008, "tags": {"bench": "yes", "bus": "yes", "highway": "bus_stop", "lit": "yes", "name": "Oc\u00e9an R\u00e9attu", "name:oc": "Occean - Reatu", "public_transport": "platform", "shelter": "yes", "source:name:oc": "ieo-bdtopoc"}}, {"type": "node", "id": 1450692393, "lat": 43.2411861, "lon": 5.3991521, "tags": {"bus": "yes", "name": "Oc\u00e9an R\u00e9attu", "name:oc": "Occean - Reatu", "public_transport": "stop_position", "source:name:oc": "ieo-bdtopoc"}}, {"type": "node", "id": 1450692394, "lat": 43.241399, "lon": 5.3987534, "tags": {"bus": "yes", "name": "Oc\u00e9an R\u00e9attu", "name:oc": "Occean - Reatu", "public_transport": "stop_position", "source:name:oc": "ieo-bdtopoc"}}, {"type": "node", "id": 1450692395, "lat": 43.241443, "lon": 5.3987973, "tags": {"bench": "no", "bin": "no", "bus": "yes", "highway": "bus_stop", "lit": "yes", "name": "Oc\u00e9an R\u00e9attu", "name:oc": "Occean - Reatu", "public_transport": "platform", "shelter": "no", "source:name:oc": "ieo-bdtopoc"}}, {"type": "node", "id": 1450692396, "lat": 43.2422435, "lon": 5.4031584, "tags": {"bench": "no", "bin": "no", "bus": "yes", "highway": "bus_stop", "lit": "yes", "name": "Soude Pom\u00e9on", "name:oc": "Souda - Pomeon", "public_transport": "platform", "shelter": "no", "source:name:oc": "ieo-bdtopoc", "tactile_paving": "no"}}, {"type": "node", "id": 1450692397, "lat": 43.2444559, "lon": 5.3999976, "tags": {"bench": "no", "bus": "yes", "highway": "bus_stop", "name": "Soude R\u00e9ginensi", "name:oc": "Souda - Reginensi", "public_transport": "platform", "shelter": "no", "source:name:oc": "ieo-bdtopoc"}}, {"type": "node", "id": 1450692398, "lat": 43.2445125, "lon": 5.3999815, "tags": {"bus": "yes", "name": "Soude R\u00e9ginensi", "name:oc": "Souda - Reginensi", "public_transport": "stop_position", "source:name:oc": "ieo-bdtopoc"}}, {"type": "node", "id": 1450714320, "lat": 43.2630325, "lon": 5.3928318, "tags": {"bench": "no", "bin": "no", "bus": "yes", "highway": "bus_stop", "lit": "yes", "name": "Mazargues Barral", "name:oc": "Marsangues", "public_transport": "platform", "shelter": "no", "source:name:oc": "ieo-bdtopoc", "tactile_paving": "no"}}, {"type": "node", "id": 1451045915, "lat": 43.2292403, "lon": 5.4015294, "tags": {"bus": "yes", "name": "Sormiou Cayolle", "name:oc": "Sormiu - Calh\u00f2la", "public_transport": "stop_position", "source:name:oc": "ieo-bdtopoc"}}, {"type": "node", "id": 1451045916, "lat": 43.2611308, "lon": 5.3936999, "tags": {"bus": "yes", "name": "Reggio", "name:oc": "Reggio", "public_transport": "stop_position", "source:name:oc": "ieo-bdtopoc"}}, {"type": "node", "id": 1451045917, "lat": 43.2327237, "lon": 5.4000504, "tags": {"bus": "yes", "name": "CC Sormiou", "name:oc": "CC Sormiu", "public_transport": "stop_position", "source:name:oc": "ieo-bdtopoc"}}, {"type": "node", "id": 1451045918, "lat": 43.2303061, "lon": 5.4010228, "tags": {"bus": "yes", "name": "Sormiou Cayolle", "name:oc": "Sormiu - Calh\u00f2la", "public_transport": "stop_position", "source:name:oc": "ieo-bdtopoc"}}, {"type": "node", "id": 1452951580, "lat": 43.2449909, "lon": 5.4281415, "tags": {"bench": "yes", "bin": "yes", "bus": "yes", "highway": "bus_stop", "lit": "yes", "name": "Le Redon", "name:oc": "Lo Redon", "public_transport": "platform", "ref": "24;24T;M8", "shelter": "yes", "source:name:oc": "ieo-bdtopoc", "tactile_paving": "yes", "wheelchair": "yes"}}, {"type": "node", "id": 1452951596, "lat": 43.2448159, "lon": 5.4268293, "tags": {"bench": "yes", "bin": "yes", "bus": "yes", "highway": "bus_stop", "lit": "yes", "name": "Le Redon", "name:oc": "Lo Redon", "public_transport": "platform", "ref": "B1;521", "shelter": "yes", "source": "survey 2018-09-13", "source:name:oc": "ieo-bdtopoc", "tactile_paving": "yes", "wheelchair": "yes"}}, {"type": "node", "id": 1452951623, "lat": 43.2451616, "lon": 5.4242865, "tags": {"bench": "yes", "bin": "yes", "bus": "yes", "highway": "bus_stop", "lit": "yes", "name": "R\u00e9sidence Valmont Redon", "name:oc": "Resid\u00e9ncia Valmont - Redon", "public_transport": "platform", "shelter": "yes", "source": "survey 2018-09-13", "source:name:oc": "ieo-bdtopoc", "tactile_paving": "yes", "wheelchair": "yes"}}, {"type": "node", "id": 1452951640, "lat": 43.2455454, "lon": 5.4233297, "tags": {"bench": "yes", "bin": "yes", "bus": "yes", "highway": "bus_stop", "lit": "yes", "name": "R\u00e9sidence Valmont Redon", "name:oc": "Resid\u00e9ncia Valmont - Redon", "public_transport": "platform", "shelter": "yes", "source": "survey 2018-09-13", "source:name:oc": "ieo-bdtopoc", "tactile_paving": "yes", "wheelchair": "yes"}}, {"type": "node", "id": 1452951649, "lat": 43.2426832, "lon": 5.4381103, "tags": {"bench": "no", "bin": "no", "bus": "yes", "highway": "bus_stop", "lit": "yes", "name": "HLM de Luminy", "name:oc": "HLM de Luminie", "public_transport": "platform", "shelter": "no", "source": "survey 2018-09-06", "source:name:oc": "ieo-bdtopoc", "tactile_paving": "yes", "wheelchair": "yes"}}, {"type": "node", "id": 1452951655, "lat": 43.2426831, "lon": 5.438181, "tags": {"bus": "yes", "name": "HLM de Luminy", "name:oc": "HLM de Lumini", "public_transport": "stop_position", "source:name:oc": "ieo-bdtopoc"}}, {"type": "node", "id": 1452951659, "lat": 43.2431095, "lon": 5.4382235, "tags": {"bench": "yes", "bin": "yes", "bus": "yes", "highway": "bus_stop", "lit": "yes", "name": "HLM de Luminy", "name:oc": "HLM de Luminie", "public_transport": "platform", "shelter": "yes", "source": "survey 2018-09-06", "source:name:oc": "ieo-bdtopoc", "tactile_paving": "yes", "wheelchair": "yes"}}, {"type": "node", "id": 1452951665, "lat": 43.2462681, "lon": 5.4323963, "tags": {"bench": "yes", "bin": "no", "bus": "yes", "highway": "bus_stop", "lit": "yes", "name": "Lachamp Le Clos des Iris", "name:oc": "Lacamp - Lo Claus dei Glaujas", "public_transport": "platform", "shelter": "no", "source": "survey 2018-09-13", "tactile_paving": "yes", "wheelchair": "yes"}}, {"type": "node", "id": 1452951669, "lat": 43.246358, "lon": 5.4319648, "tags": {"bench": "yes", "bin": "yes", "bus": "yes", "check_date:shelter": "2023-06-09", "highway": "bus_stop", "lit": "yes", "name": "Lachamp Le Clos des Iris", "name:oc": "Lacamp - Lo Claus dei Glaujas", "public_transport": "platform", "shelter": "yes", "source": "survey 2018-09-13", "source:name:oc": "ieo-bdtopoc", "tactile_paving": "yes", "wheelchair": "yes"}}, {"type": "node", "id": 1452951679, "lat": 43.2462929, "lon": 5.4323973, "tags": {"bus": "yes", "name": "Lachamp Le Clos des Iris", "name:oc": "Lacamp - Lo Claus dei Glaujas", "public_transport": "stop_position", "source:name:oc": "ieo-bdtopoc"}}, {"type": "node", "id": 1452951682, "lat": 43.2374197, "lon": 5.4356345, "tags": {"bench": "no", "bin": "no", "bus": "yes", "highway": "bus_stop", "name": "Luminy Complexe Sportif", "name:oc": "Lumini - Compl\u00e8x Esportiu", "public_transport": "platform", "shelter": "no", "source": "survey 2018-09-06", "source:name:oc": "ieo-bdtopoc", "tactile_paving": "yes", "wheelchair": "yes"}}, {"type": "node", "id": 1452951709, "lat": 43.2463252, "lon": 5.4363568, "tags": {"bus": "yes", "name": "Luminy Lachamp", "name:oc": "Lumini - Lachamp", "public_transport": "stop_position", "source:name:oc": "ieo-bdtopoc"}}, {"type": "node", "id": 1452951741, "lat": 43.2454847, "lon": 5.4113178, "tags": {"bus": "yes", "name": "Tomasi", "name:oc": "Tomasi", "public_transport": "stop_position", "source:name:oc": "ieo-bdtopoc"}}, {"type": "node", "id": 1452951750, "lat": 43.2455641, "lon": 5.4114134, "tags": {"bench": "yes", "bin": "yes", "bus": "yes", "highway": "bus_stop", "lit": "yes", "name": "Tomasi", "name:oc": "Tomasi", "public_transport": "platform", "shelter": "yes", "source": "survey 2018-09-13", "source:name:oc": "ieo-bdtopoc", "tactile_paving": "yes", "wheelchair": "yes"}}, {"type": "node", "id": 1452951755, "lat": 43.2478561, "lon": 5.4063513, "tags": {"bench": "yes", "bin": "yes", "bus": "yes", "highway": "bus_stop", "name": "Sainte-Trinit\u00e9", "name:oc": "Santa Trinitat", "public_transport": "platform", "shelter": "yes", "source": "survey 2018-09-13", "source:name:oc": "ieo-bdtopoc", "tactile_paving": "yes", "wheelchair": "yes"}}, {"type": "node", "id": 1452951766, "lat": 43.2478928, "lon": 5.4065191, "tags": {"bench": "yes", "bus": "yes", "highway": "bus_stop", "name": "Sainte-Trinit\u00e9", "name:oc": "Santa Trinitat", "public_transport": "platform", "shelter": "yes", "source": "survey 2018-09-13", "source:name:oc": "ieo-bdtopoc", "tactile_paving": "yes", "wheelchair": "yes"}}, {"type": "node", "id": 1452951778, "lat": 43.2458134, "lon": 5.4166054, "tags": {"bus": "yes", "name": "Centre Commercial Valmante", "name:oc": "Centre Comerciau Valmanta", "public_transport": "stop_position", "source:name:oc": "ieo-bdtopoc", "survey:date": "2023-06-08"}}, {"type": "node", "id": 1452951782, "lat": 43.2458124, "lon": 5.415798, "tags": {"bench": "yes", "bin": "yes", "bus": "yes", "check_date:shelter": "2023-08-31", "highway": "bus_stop", "lit": "yes", "name": "Centre Commercial Valmante", "name:oc": "Centre Comerciau Valmanta", "public_transport": "platform", "shelter": "yes", "source": "survey 2018-09-13", "source:name:oc": "ieo-bdtopoc", "tactile_paving": "yes", "wheelchair": "yes"}}, {"type": "node", "id": 1492452516, "lat": 43.2415204, "lon": 5.396483, "tags": {"bench": "no", "bus": "yes", "highway": "bus_stop", "name": "Coll\u00e8ge Roy d'Espagne", "name:oc": "Collegi Dau R\u00e8i d\u2019Espanha", "public_transport": "platform", "shelter": "no", "source:name:oc": "ieo-bdtopoc"}}, {"type": "node", "id": 1492452517, "lat": 43.2450999, "lon": 5.3896104, "tags": {"bench": "no", "bin": "yes", "bus": "yes", "highway": "bus_stop", "lit": "yes", "name": "Floralia Chiapale", "name:oc": "Floralia - Chiapale", "public_transport": "platform", "shelter": "no", "source:name:oc": "ieo-bdtopoc", "tactile_paving": "no"}}, {"type": "node", "id": 1492452518, "lat": 43.2451698, "lon": 5.3897308, "tags": {"bench": "no", "bin": "yes", "bus": "yes", "highway": "bus_stop", "lit": "yes", "name": "Floralia Chiapale", "name:oc": "Floralia - Chiapale", "public_transport": "platform", "shelter": "no", "source:name:oc": "ieo-bdtopoc", "tactile_paving": "no"}}, {"type": "node", "id": 1492452519, "lat": 43.2416135, "lon": 5.3961961, "tags": {"bench": "yes", "bin": "yes", "bus": "yes", "departures_board": "timetable", "highway": "bus_stop", "name": "Coll\u00e8ge Roy d'Espagne", "name:oc": "Collegi Dau R\u00e8i d\u2019Espanha", "public_transport": "platform", "shelter": "yes", "source:name:oc": "ieo-bdtopoc"}}, {"type": "node", "id": 1492452520, "lat": 43.2434226, "lon": 5.3921946, "tags": {"bench": "yes", "bus": "yes", "highway": "bus_stop", "name": "Floralia Le M\u00e9e", "name:oc": "Floraria - Lo Mea", "public_transport": "platform", "shelter": "yes", "source:name:oc": "ieo-bdtopoc"}}, {"type": "node", "id": 1492452521, "lat": 43.2427531, "lon": 5.3925601, "tags": {"bench": "no", "bin": "yes", "bus": "yes", "highway": "bus_stop", "name": "Floralia Rimet", "name:oc": "Floralia - Rimet", "public_transport": "platform", "shelter": "no", "source:name:oc": "ieo-bdtopoc"}}, {"type": "node", "id": 1492452522, "lat": 43.2427101, "lon": 5.3926591, "tags": {"bus": "yes", "name": "Floralia Rimet", "name:oc": "Floralia - Rimet", "public_transport": "stop_position", "source:name:oc": "ieo-bdtopoc"}}, {"type": "node", "id": 1492452523, "lat": 43.2412429, "lon": 5.3944049, "tags": {"bench": "no", "bus": "yes", "highway": "bus_stop", "name": "Floralia", "name:oc": "Floralia", "public_transport": "platform", "shelter": "no", "source:name:oc": "ieo-bdtopoc"}}, {"type": "node", "id": 1492452524, "lat": 43.2413528, "lon": 5.3943548, "tags": {"bench": "yes", "bus": "yes", "highway": "bus_stop", "name": "Floralia", "name:oc": "Floralia", "public_transport": "platform", "shelter": "yes", "source:name:oc": "ieo-bdtopoc"}}, {"type": "node", "id": 1492452538, "lat": 43.2447769, "lon": 5.3869466, "tags": {"bench": "no", "bus": "yes", "highway": "bus_stop", "name": "Pourri\u00e8re Floralia", "name:oc": "Porriera - Floralia", "public_transport": "platform", "shelter": "no", "source:name:oc": "ieo-bdtopoc"}}, {"type": "node", "id": 1492452539, "lat": 43.2448604, "lon": 5.3869796, "tags": {"bus": "yes", "name": "Pourri\u00e8re Floralia", "name:oc": "Porriera - Floralia", "public_transport": "stop_position", "source:name:oc": "ieo-bdtopoc"}}, {"type": "node", "id": 1492452540, "lat": 43.2449413, "lon": 5.3869878, "tags": {"bench": "no", "bus": "yes", "highway": "bus_stop", "name": "Pourri\u00e8re Floralia", "name:oc": "Porriera - Floralia", "public_transport": "platform", "shelter": "no", "source:name:oc": "ieo-bdtopoc"}}, {"type": "node", "id": 1492452548, "lat": 43.2462582, "lon": 5.3883029, "tags": {"bus": "yes", "name": "Zenatti Malrieu", "name:oc": "Zenatti - Malrieu", "public_transport": "stop_position", "source:name:oc": "ieo-bdtopoc"}}, {"type": "node", "id": 1492452549, "lat": 43.2463138, "lon": 5.3883208, "tags": {"bench": "no", "bin": "yes", "bus": "yes", "highway": "bus_stop", "lit": "yes", "name": "Zenatti Malrieu", "name:oc": "Zenatti - Malrieu", "public_transport": "platform", "shelter": "no", "source:name:oc": "ieo-bdtopoc", "tactile_paving": "no"}}, {"type": "node", "id": 1500296703, "lat": 43.2688518, "lon": 5.4034206, "tags": {"bus": "yes", "name": "La Pugette", "name:oc": "La Pujeta", "public_transport": "stop_position", "source:name:oc": "ieo-bdtopoc"}}, {"type": "node", "id": 1500296709, "lat": 43.2689017, "lon": 5.4034497, "tags": {"bus": "yes", "name": "La Pugette", "name:oc": "La Pujeta", "public_transport": "stop_position", "source:name:oc": "ieo-bdtopoc"}}, {"type": "node", "id": 1500356667, "lat": 43.2687934, "lon": 5.403318, "tags": {"bench": "no", "bin": "no", "bus": "yes", "highway": "bus_stop", "lit": "yes", "name": "La Pugette", "name:oc": "La Pujeta", "public_transport": "platform", "shelter": "no", "source:name:oc": "ieo-bdtopoc", "tactile_paving": "no"}}, {"type": "node", "id": 1500356671, "lat": 43.268943, "lon": 5.4034568, "tags": {"bench": "no", "bin": "no", "bus": "yes", "highway": "bus_stop", "lit": "yes", "name": "La Pugette", "name:oc": "La Pujeta", "public_transport": "platform", "shelter": "no", "source:name:oc": "ieo-bdtopoc", "tactile_paving": "no"}}, {"type": "node", "id": 1661418224, "lat": 43.2341012, "lon": 5.4088639, "tags": {"bench": "no", "bus": "yes", "highway": "bus_stop", "name": "Colgate Algelasto", "name:oc": "Colgate - Algelasto", "public_transport": "platform", "shelter": "no", "source:name:oc": "ieo-bdtopoc"}}, {"type": "node", "id": 1662126887, "lat": 43.2706889, "lon": 5.4026428}, {"type": "node", "id": 1662127175, "lat": 43.2708491, "lon": 5.4025047}, {"type": "node", "id": 1662127244, "lat": 43.270881, "lon": 5.403066}, {"type": "node", "id": 1662127511, "lat": 43.270968, "lon": 5.403094}, {"type": "node", "id": 1662127515, "lat": 43.270968, "lon": 5.403102}, {"type": "node", "id": 1662127548, "lat": 43.270975, "lon": 5.403123}, {"type": "node", "id": 1662127570, "lat": 43.270987, "lon": 5.403138}, {"type": "node", "id": 1662127590, "lat": 43.270993, "lon": 5.402816}, {"type": "node", "id": 1662127600, "lat": 43.270997, "lon": 5.403238}, {"type": "node", "id": 1662127616, "lat": 43.271002, "lon": 5.403145}, {"type": "node", "id": 1662127627, "lat": 43.271007, "lon": 5.402805}, {"type": "node", "id": 1662127661, "lat": 43.271015, "lon": 5.403276}, {"type": "node", "id": 1662127667, "lat": 43.271018, "lon": 5.403142}, {"type": "node", "id": 1662127677, "lat": 43.271022, "lon": 5.402879}, {"type": "node", "id": 1662127687, "lat": 43.271024, "lon": 5.403172}, {"type": "node", "id": 1662127690, "lat": 43.271026, "lon": 5.403158}, {"type": "node", "id": 1662127695, "lat": 43.271026, "lon": 5.403214}, {"type": "node", "id": 1662127700, "lat": 43.271028, "lon": 5.40305}, {"type": "node", "id": 1662127709, "lat": 43.27103, "lon": 5.402872}, {"type": "node", "id": 1662127713, "lat": 43.27103, "lon": 5.403184}, {"type": "node", "id": 1662127731, "lat": 43.271033, "lon": 5.403129}, {"type": "node", "id": 1662127740, "lat": 43.271038, "lon": 5.403067}, {"type": "node", "id": 1662127748, "lat": 43.271039, "lon": 5.403147}, {"type": "node", "id": 1662127751, "lat": 43.271039, "lon": 5.403409}, {"type": "node", "id": 1662127755, "lat": 43.271041, "lon": 5.403111}, {"type": "node", "id": 1662127756, "lat": 43.271041, "lon": 5.403186}, {"type": "node", "id": 1662127769, "lat": 43.271043, "lon": 5.402925}, {"type": "node", "id": 1662127772, "lat": 43.271044, "lon": 5.403088}, {"type": "node", "id": 1662127775, "lat": 43.271044, "lon": 5.403251}, {"type": "node", "id": 1662127787, "lat": 43.271048, "lon": 5.403149}, {"type": "node", "id": 1662127812, "lat": 43.271051, "lon": 5.403176}, {"type": "node", "id": 1662127813, "lat": 43.271053, "lon": 5.403163}, {"type": "node", "id": 1662127833, "lat": 43.271058, "lon": 5.403448}, {"type": "node", "id": 1662127868, "lat": 43.271065, "lon": 5.403386}, {"type": "node", "id": 1662127888, "lat": 43.271069, "lon": 5.403265}, {"type": "node", "id": 1662127893, "lat": 43.271071, "lon": 5.403249}, {"type": "node", "id": 1662127901, "lat": 43.271075, "lon": 5.403281}, {"type": "node", "id": 1662127928, "lat": 43.271081, "lon": 5.403239}, {"type": "node", "id": 1662127944, "lat": 43.271084, "lon": 5.403177}, {"type": "node", "id": 1662127945, "lat": 43.271084, "lon": 5.403426}, {"type": "node", "id": 1662127957, "lat": 43.271086, "lon": 5.403159}, {"type": "node", "id": 1662127958, "lat": 43.271086, "lon": 5.403284}, {"type": "node", "id": 1662127995, "lat": 43.271092, "lon": 5.403243}, {"type": "node", "id": 1662128009, "lat": 43.271094, "lon": 5.403198}, {"type": "node", "id": 1662128027, "lat": 43.271098, "lon": 5.403274}, {"type": "node", "id": 1662128039, "lat": 43.271099, "lon": 5.403148}, {"type": "node", "id": 1662128043, "lat": 43.2711, "lon": 5.40326}, {"type": "node", "id": 1662128066, "lat": 43.271106, "lon": 5.403201}, {"type": "node", "id": 1662128095, "lat": 43.271112, "lon": 5.403242}, {"type": "node", "id": 1662128102, "lat": 43.271113, "lon": 5.403152}, {"type": "node", "id": 1662128140, "lat": 43.271119, "lon": 5.403191}, {"type": "node", "id": 1662128167, "lat": 43.271122, "lon": 5.403169}, {"type": "node", "id": 1662128184, "lat": 43.271126, "lon": 5.403467}, {"type": "node", "id": 1662128200, "lat": 43.271132, "lon": 5.403281}, {"type": "node", "id": 1662128210, "lat": 43.271138, "lon": 5.403392}, {"type": "node", "id": 1662128216, "lat": 43.271141, "lon": 5.403217}, {"type": "node", "id": 1662128233, "lat": 43.271149, "lon": 5.40338}, {"type": "node", "id": 1662128246, "lat": 43.271159, "lon": 5.403256}, {"type": "node", "id": 1662128283, "lat": 43.271182, "lon": 5.403644}, {"type": "node", "id": 1662128297, "lat": 43.271189, "lon": 5.403389}, {"type": "node", "id": 1662128327, "lat": 43.271199, "lon": 5.403572}, {"type": "node", "id": 1662128339, "lat": 43.271201, "lon": 5.403684}, {"type": "node", "id": 1662128354, "lat": 43.271205, "lon": 5.403779}, {"type": "node", "id": 1662128362, "lat": 43.271207, "lon": 5.40353}, {"type": "node", "id": 1662128381, "lat": 43.27121, "lon": 5.403619}, {"type": "node", "id": 1662128416, "lat": 43.271222, "lon": 5.403817}, {"type": "node", "id": 1662128426, "lat": 43.271224, "lon": 5.403581}, {"type": "node", "id": 1662128433, "lat": 43.271226, "lon": 5.403534}, {"type": "node", "id": 1662128441, "lat": 43.271229, "lon": 5.403659}, {"type": "node", "id": 1662128452, "lat": 43.271232, "lon": 5.403752}, {"type": "node", "id": 1662128464, "lat": 43.27124, "lon": 5.403501}, {"type": "node", "id": 1662128471, "lat": 43.271242, "lon": 5.403567}, {"type": "node", "id": 1662128505, "lat": 43.271251, "lon": 5.40379}, {"type": "node", "id": 1662128592, "lat": 43.271266, "lon": 5.403828}, {"type": "node", "id": 1662128630, "lat": 43.271284, "lon": 5.403869}, {"type": "node", "id": 1662128649, "lat": 43.271293, "lon": 5.403804}, {"type": "node", "id": 1662128683, "lat": 43.271313, "lon": 5.403846}, {"type": "node", "id": 1696622324, "lat": 43.2314104, "lon": 5.4372039, "tags": {"bench": "no", "bin": "yes", "bus": "yes", "highway": "bus_stop", "lit": "yes", "name": "Luminy Parc National des Calanques", "name:oc": "Lumini - Pargue Nacionau dei Calancas", "public_transport": "platform", "shelter": "no", "source:name:oc": "ieo-bdtopoc", "tactile_paving": "yes", "wheelchair": "yes"}}, {"type": "node", "id": 1701727453, "lat": 43.2466991, "lon": 5.5130282, "tags": {"bus": "yes", "highway": "bus_stop", "name": "Camp de Carpiagne", "name:oc": "Camp de Carpesanha", "public_transport": "stop_position", "source:name:oc": "ieo-bdtopoc"}}, {"type": "node", "id": 1714070543, "lat": 43.2460343, "lon": 5.3986207, "tags": {"bus": "yes", "name": "Barqui\u00e8re Martheline", "name:oc": "Barquiera - Martelina", "public_transport": "stop_position", "source:name:oc": "ieo-bdtopoc"}}, {"type": "node", "id": 1768566935, "lat": 43.2457499, "lon": 5.3937761, "tags": {"bench": "yes", "bus": "yes", "highway": "bus_stop", "name": "Zenatti Lyc\u00e9e", "name:oc": "Zenatti - Lic\u00e8u", "public_transport": "platform", "shelter": "yes", "source:name:oc": "ieo-bdtopoc"}}, {"type": "node", "id": 1768566936, "lat": 43.2458789, "lon": 5.3925645, "tags": {"bench": "yes", "bus": "yes", "highway": "bus_stop", "name": "Zenatti Lyc\u00e9e", "name:oc": "Zenatti - Lic\u00e8u", "public_transport": "platform", "shelter": "yes", "source:name:oc": "ieo-bdtopoc"}}, {"type": "node", "id": 1768566937, "lat": 43.2460594, "lon": 5.389331, "tags": {"bench": "no", "bin": "yes", "bus": "yes", "highway": "bus_stop", "name": "Zenatti Malrieu", "name:oc": "Zenatti - Malrieu", "public_transport": "platform", "shelter": "no", "source:name:oc": "ieo-bdtopoc", "tactile_paving": "no"}}, {"type": "node", "id": 1768566939, "lat": 43.2461162, "lon": 5.389359, "tags": {"bus": "yes", "name": "Zenatti Malrieu", "name:oc": "Zenatti - Malrieu", "public_transport": "stop_position", "source:name:oc": "ieo-bdtopoc"}}, {"type": "node", "id": 1768642942, "lat": 43.2340204, "lon": 5.4089941, "tags": {"bench": "no", "bus": "yes", "highway": "bus_stop", "name": "Colgate Algelasto", "name:oc": "Colgate - Algelasto", "public_transport": "platform", "shelter": "no", "source:name:oc": "ieo-bdtopoc"}}, {"type": "node", "id": 1768642952, "lat": 43.2340685, "lon": 5.408924, "tags": {"bus": "yes", "name": "Colgate Algelasto", "name:oc": "Colgate - Algelasto", "public_transport": "stop_position", "source:name:oc": "ieo-bdtopoc"}}, {"type": "node", "id": 1768642961, "lat": 43.2319841, "lon": 5.4023903, "tags": {"bench": "no", "bus": "yes", "highway": "bus_stop", "name": "Terrasses de Sormiou", "name:oc": "Terrassas de Sormiu", "public_transport": "platform", "shelter": "no", "source:name:oc": "ieo-bdtopoc", "tactile_paving": "yes", "wheelchair": "yes"}}, {"type": "node", "id": 1768642967, "lat": 43.2320577, "lon": 5.4022823, "tags": {"bench": "yes", "bus": "yes", "highway": "bus_stop", "name": "Terrasses de Sormiou", "name:oc": "Terrassas de Sormiu", "public_transport": "platform", "shelter": "yes", "source:name:oc": "ieo-bdtopoc", "tactile_paving": "yes", "wheelchair": "yes"}}, {"type": "node", "id": 1768642982, "lat": 43.2331026, "lon": 5.4052032, "tags": {"bus": "yes", "name": "Colgate Valette", "name:oc": "Colgate - Valeta", "public_transport": "stop_position", "source:name:oc": "ieo-bdtopoc"}}, {"type": "node", "id": 1768642989, "lat": 43.233125, "lon": 5.4051397, "tags": {"bench": "yes", "bus": "yes", "highway": "bus_stop", "name": "Colgate Valette", "name:oc": "Colgate - Valeta", "public_transport": "platform", "shelter": "yes", "source:name:oc": "ieo-bdtopoc", "tactile_paving": "yes", "wheelchair": "yes"}}, {"type": "node", "id": 1768642998, "lat": 43.2335008, "lon": 5.4059856, "tags": {"bench": "no", "bus": "yes", "highway": "bus_stop", "name": "Colgate Valette", "name:oc": "Colgate - Valeta", "public_transport": "platform", "shelter": "no", "source:name:oc": "ieo-bdtopoc"}}, {"type": "node", "id": 1768643005, "lat": 43.2335309, "lon": 5.4059658, "tags": {"bus": "yes", "name": "Colgate Valette", "name:oc": "Colgate - Valeta", "public_transport": "stop_position", "source:name:oc": "ieo-bdtopoc"}}, {"type": "node", "id": 1768643009, "lat": 43.2342371, "lon": 5.3992552, "tags": {"bench": "no", "bus": "yes", "highway": "bus_stop", "name": "Sormiou Jarre", "name:oc": "Sormiu - Jarra", "public_transport": "platform", "shelter": "no", "source:name:oc": "ieo-bdtopoc", "tactile_paving": "yes", "wheelchair": "yes"}}, {"type": "node", "id": 1768643019, "lat": 43.2349976, "lon": 5.3992766, "tags": {"bench": "yes", "bin": "yes", "bus": "yes", "highway": "bus_stop", "name": "Sormiou Croisa", "name:oc": "Sormiu - Croisa", "public_transport": "platform", "shelter": "yes", "source:name:oc": "ieo-bdtopoc", "tactile_paving": "yes", "wheelchair": "yes"}}, {"type": "node", "id": 1768643026, "lat": 43.2360092, "lon": 5.398878, "tags": {"bench": "no", "bus": "yes", "highway": "bus_stop", "name": "Sormiou Roy d'Espagne", "name:oc": "Sormiu - R\u00e8i d\u2019Espanha", "public_transport": "platform", "shelter": "no", "source:name:oc": "ieo-bdtopoc"}}, {"type": "node", "id": 1768643034, "lat": 43.2360171, "lon": 5.3989393, "tags": {"bus": "yes", "name": "Sormiou Roy d'Espagne", "name:oc": "Sormiu - R\u00e8i d\u2019Espanha", "public_transport": "stop_position", "source:name:oc": "ieo-bdtopoc"}}, {"type": "node", "id": 1768643040, "lat": 43.2365743, "lon": 5.3990376, "tags": {"bench": "no", "bin": "yes", "bus": "yes", "highway": "bus_stop", "name": "Sormiou Roy d'Espagne", "name:oc": "Sormiu - R\u00e8i d\u2019Espanha", "public_transport": "platform", "shelter": "no", "source:name:oc": "ieo-bdtopoc"}}, {"type": "node", "id": 1781534072, "lat": 43.2576809, "lon": 5.3971912, "tags": {"bus": "yes", "name": "Isaac Luce", "name:oc": "Ishaq - L\u00facia", "public_transport": "stop_position", "source:name:oc": "ieo-bdtopoc"}}, {"type": "node", "id": 1781534073, "lat": 43.2580416, "lon": 5.3967573, "tags": {"bus": "yes", "name": "Luce Isaac", "name:oc": "L\u00facia - Ishaq", "public_transport": "stop_position", "source:name:oc": "ieo-bdtopoc"}}, {"type": "node", "id": 1781534075, "lat": 43.2585192, "lon": 5.3985232, "tags": {"bench": "no", "bus": "yes", "highway": "bus_stop", "name": "Luce Michelet", "name:oc": "L\u00facia - Michelet", "public_transport": "platform", "shelter": "no", "source:name:oc": "ieo-bdtopoc"}}, {"type": "node", "id": 1781534076, "lat": 43.258541, "lon": 5.3984315, "tags": {"bus": "yes", "name": "Luce Michelet", "name:oc": "L\u00facia - Michelet", "public_transport": "stop_position", "source:name:oc": "ieo-bdtopoc"}}, {"type": "node", "id": 1781534077, "lat": 43.2566723, "lon": 5.3945936, "tags": {"bus": "yes", "name": "Sainte-Anne", "name:oc": "Santa Anna", "public_transport": "stop_position", "source:name:oc": "ieo-bdtopoc"}}, {"type": "node", "id": 1781549781, "lat": 43.246008, "lon": 5.4040948, "tags": {"bench": "yes", "bus": "yes", "highway": "bus_stop", "name": "Mazargues", "name:oc": "Marsangues", "public_transport": "platform", "shelter": "yes", "source:name:oc": "ieo-bdtopoc"}}, {"type": "node", "id": 1781549784, "lat": 43.2460118, "lon": 5.4038407, "tags": {"bench": "no", "bus": "yes", "highway": "bus_stop", "name": "Mazargues", "name:oc": "Marsangues", "public_transport": "platform", "shelter": "no", "source:name:oc": "ieo-bdtopoc"}}, {"type": "node", "id": 1781549785, "lat": 43.246032, "lon": 5.4038584, "tags": {"bus": "yes", "name": "Mazargues", "name:oc": "Marzaneges", "public_transport": "stop_position", "source:name:oc": "ieo-bdtopoc"}}, {"type": "node", "id": 1781549798, "lat": 43.2460422, "lon": 5.4040182, "tags": {"bus": "yes", "name": "Mazargues", "name:oc": "Marsangues", "public_transport": "stop_position", "source:name:oc": "ieo-bdtopoc"}}, {"type": "node", "id": 1781549812, "lat": 43.2428512, "lon": 5.4063012, "tags": {"bench": "no", "bus": "yes", "highway": "bus_stop", "name": "Morgiou Seigneurie", "name:oc": "Morgiu - Senhori\u00e1", "public_transport": "platform", "shelter": "no", "source:name:oc": "ieo-bdtopoc"}}, {"type": "node", "id": 1781549817, "lat": 43.2471246, "lon": 5.401458, "tags": {"bench": "no", "bin": "no", "bus": "yes", "highway": "bus_stop", "name": "Robespierre", "name:oc": "Robespierre", "public_transport": "platform", "shelter": "no", "source:name:oc": "ieo-bdtopoc", "tactile_paving": "yes"}}, {"type": "node", "id": 1781549819, "lat": 43.2471428, "lon": 5.4014745, "tags": {"bus": "yes", "name": "Robespierre", "name:oc": "Robespierre", "operator": "RTM", "public_transport": "stop_position"}}, {"type": "node", "id": 1781549832, "lat": 43.2480968, "lon": 5.4011801, "tags": {"bus": "yes", "name": "Robespierre", "name:oc": "Robespierre", "operator": "RTM", "public_transport": "stop_position", "source:name:oc": "ieo-bdtopoc"}}, {"type": "node", "id": 1781549836, "lat": 43.2481207, "lon": 5.4012019, "tags": {"bench": "no", "bus": "yes", "check_date:shelter": "2024-08-08", "highway": "bus_stop", "name": "Robespierre", "name:oc": "Robespierre", "public_transport": "platform", "shelter": "no", "source:name:oc": "ieo-bdtopoc", "tactile_paving": "no"}}, {"type": "node", "id": 1781572464, "lat": 43.240446, "lon": 5.4070387, "tags": {"bus": "yes", "name": "Morgiou Rosiers", "name:oc": "Morgiu - Rosiers", "public_transport": "stop_position", "source:name:oc": "ieo-bdtopoc"}}, {"type": "node", "id": 1781572466, "lat": 43.240661, "lon": 5.4069796, "tags": {"bus": "yes", "name": "Morgiou Rosiers", "name:oc": "Morgiu - Rosiers", "public_transport": "stop_position", "source:name:oc": "ieo-bdtopoc"}}, {"type": "node", "id": 1781579967, "lat": 43.2392186, "lon": 5.4142823, "tags": {"bench": "no", "bus": "yes", "highway": "bus_stop", "name": "La Seigneurie", "name:oc": "La Senhori\u00e1", "public_transport": "platform", "shelter": "no", "source:name:oc": "ieo-bdtopoc"}}, {"type": "node", "id": 1781579968, "lat": 43.2393131, "lon": 5.4143533, "tags": {"bench": "no", "bus": "yes", "highway": "bus_stop", "name": "La Seigneurie", "name:oc": "La Senhori\u00e1", "public_transport": "platform", "shelter": "no", "source:name:oc": "ieo-bdtopoc"}}, {"type": "node", "id": 1781579969, "lat": 43.2374923, "lon": 5.4090474, "tags": {"bench": "no", "bin": "yes", "bus": "yes", "highway": "bus_stop", "name": "Morgiou Cauvi\u00e8re", "name:oc": "Morgiu - Cauvi\u00e8ra", "public_transport": "platform", "shelter": "no", "source:name:oc": "ieo-bdtopoc"}}, {"type": "node", "id": 1781579971, "lat": 43.2375603, "lon": 5.4088112, "tags": {"bench": "no", "bin": "no", "bus": "yes", "highway": "bus_stop", "name": "Morgiou Cauvi\u00e8re", "name:oc": "Morgiu - Cauvi\u00e8ra", "public_transport": "platform", "shelter": "no", "source:name:oc": "ieo-bdtopoc"}}, {"type": "node", "id": 1781579972, "lat": 43.237582, "lon": 5.4089016, "tags": {"bus": "yes", "name": "Morgiou Cauvi\u00e8re", "name:oc": "Morgiu - Cauvi\u00e8ra", "public_transport": "stop_position", "source:name:oc": "ieo-bdtopoc"}}, {"type": "node", "id": 1781579973, "lat": 43.2403555, "lon": 5.406985, "tags": {"bench": "no", "bin": "no", "bus": "yes", "highway": "bus_stop", "name": "Morgiou Rosiers", "name:oc": "Morgiu - Rosiers", "public_transport": "platform", "shelter": "no", "source:name:oc": "ieo-bdtopoc"}}, {"type": "node", "id": 1781579974, "lat": 43.2406753, "lon": 5.4070774, "tags": {"bench": "yes", "bin": "yes", "bus": "yes", "highway": "bus_stop", "name": "Morgiou Rosiers", "name:oc": "Morgiu - Rosiers", "public_transport": "platform", "shelter": "yes", "source:name:oc": "ieo-bdtopoc", "tactile_paving": "yes"}}, {"type": "node", "id": 1781579976, "lat": 43.2358339, "lon": 5.4103964, "tags": {"bus": "yes", "name": "Morgiou Vert Plan", "name:oc": "Morgiu - Plan V\u00e8rd", "public_transport": "stop_position", "source:name:oc": "ieo-bdtopoc"}}, {"type": "node", "id": 1781579977, "lat": 43.2358737, "lon": 5.4104581, "tags": {"bench": "no", "bin": "yes", "bus": "yes", "highway": "bus_stop", "name": "Morgiou Vert Plan", "name:oc": "Morgiu - Plan V\u00e8rd", "public_transport": "platform", "shelter": "no", "source:name:oc": "ieo-bdtopoc"}}, {"type": "node", "id": 1781579978, "lat": 43.2360321, "lon": 5.4100969, "tags": {"bench": "no", "bin": "yes", "bus": "yes", "highway": "bus_stop", "name": "Morgiou Vert Plan", "name:oc": "Morgiu - Plan V\u00e8rd", "public_transport": "platform", "shelter": "no", "source:name:oc": "ieo-bdtopoc", "tactile_paving": "no"}}, {"type": "node", "id": 1781579979, "lat": 43.2360662, "lon": 5.4101676, "tags": {"bus": "yes", "name": "Morgiou Vert Plan", "name:oc": "Morgiu - Plan V\u00e8rd", "public_transport": "stop_position", "source:name:oc": "ieo-bdtopoc"}}, {"type": "node", "id": 1781579981, "lat": 43.2353056, "lon": 5.4129946, "tags": {"bus": "yes", "name": "Rabat Beauvallon", "name:oc": "Rabat - Beuvalon", "public_transport": "stop_position", "source:name:oc": "ieo-bdtopoc"}}, {"type": "node", "id": 1781579982, "lat": 43.2353511, "lon": 5.4129321, "tags": {"bench": "no", "bus": "yes", "highway": "bus_stop", "name": "Rabat Beauvallon", "name:oc": "Rabat - Beuvalon", "public_transport": "platform", "shelter": "no", "source:name:oc": "ieo-bdtopoc"}}, {"type": "node", "id": 1781579983, "lat": 43.2354035, "lon": 5.41317, "tags": {"bench": "no", "bus": "yes", "highway": "bus_stop", "name": "Rabat Beauvallon", "name:oc": "Rabat - Beuvalon", "public_transport": "platform", "shelter": "no", "source:name:oc": "ieo-bdtopoc"}}, {"type": "node", "id": 1781579984, "lat": 43.2354291, "lon": 5.413129, "tags": {"bus": "yes", "name": "Rabat Beauvallon", "name:oc": "Rabat - Beuvalon", "public_transport": "stop_position", "source:name:oc": "ieo-bdtopoc"}}, {"type": "node", "id": 1781579985, "lat": 43.2371578, "lon": 5.4133204, "tags": {"bus": "yes", "name": "Rabat Seigneurie", "name:oc": "Rabat - Senhori\u00e1", "public_transport": "stop_position", "source:name:oc": "ieo-bdtopoc"}}, {"type": "node", "id": 1781579987, "lat": 43.237161, "lon": 5.4133855, "tags": {"bench": "no", "bus": "yes", "highway": "bus_stop", "name": "Rabat Seigneurie", "name:oc": "Rabat - Senhori\u00e1", "public_transport": "platform", "shelter": "no", "source:name:oc": "ieo-bdtopoc"}}, {"type": "node", "id": 1781579988, "lat": 43.2375863, "lon": 5.4132977, "tags": {"bus": "yes", "name": "Rabat Seigneurie", "name:oc": "Rabat - Senhori\u00e1", "public_transport": "stop_position", "source:name:oc": "ieo-bdtopoc"}}, {"type": "node", "id": 1781579989, "lat": 43.2376135, "lon": 5.4132281, "tags": {"bench": "yes", "bus": "yes", "highway": "bus_stop", "name": "Rabat Seigneurie", "name:oc": "Rabat - Senhori\u00e1", "public_transport": "platform", "shelter": "yes", "source:name:oc": "ieo-bdtopoc"}}, {"type": "node", "id": 1827904968, "lat": 43.256631, "lon": 5.4194603, "tags": {"bus": "yes", "name": "Le Redon La Panouse", "name:oc": "Lo Redon - La Panosa", "public_transport": "stop_position", "source:name:oc": "ieo-bdtopoc"}}, {"type": "node", "id": 1930403619, "lat": 43.2742204, "lon": 5.4145368, "tags": {"bench": "no", "bus": "yes", "highway": "bus_stop", "name": "La Sauvag\u00e8re", "name:oc": "La Sauvatgiera", "public_transport": "platform", "shelter": "no"}}, {"type": "node", "id": 1969809320, "lat": 43.2314514, "lon": 5.4371911, "tags": {"bus": "yes", "name": "Luminy Parc National des Calanques", "name:oc": "Lumini - Pargue Nacionau dei Calancas", "public_transport": "stop_position", "source:name:oc": "ieo-bdtopoc"}}, {"type": "node", "id": 2059728434, "lat": 43.2422631, "lon": 5.4031924, "tags": {"bus": "yes", "name": "Soude Pom\u00e9on", "name:oc": "Souda - Pomeon", "public_transport": "stop_position", "source:name:oc": "ieo-bdtopoc"}}, {"type": "node", "id": 2113358543, "lat": 43.2478854, "lon": 5.4064642, "tags": {"bus": "yes", "name": "Sainte-Trinit\u00e9", "name:oc": "Santa Trinitat", "public_transport": "stop_position", "source:name:oc": "ieo-bdtopoc"}}, {"type": "node", "id": 2188694907, "lat": 43.2701914, "lon": 5.4079067, "tags": {"bench": "no", "bin": "no", "bus": "yes", "highway": "bus_stop", "name": "Belle Ombre Romain Rolland", "name:oc": "B\u00e8la Ombra - Roman Rolland", "public_transport": "platform", "shelter": "no", "source": "surcey 2018", "tactile_paving": "no"}}, {"type": "node", "id": 2188694909, "lat": 43.2734145, "lon": 5.4073519, "tags": {"bench": "no", "bus": "yes", "highway": "bus_stop", "name": "Huveaune Platanes", "name:oc": "V\u00e8una - Platanas", "public_transport": "platform", "shelter": "no", "source:name:oc": "ieo-bdtopoc", "tactile_paving": "no"}}, {"type": "node", "id": 2188694931, "lat": 43.27382, "lon": 5.4142511, "tags": {"bench": "no", "bus": "yes", "highway": "bus_stop", "name": "La Sauvag\u00e8re", "name:oc": "La Sauvatgiera", "public_transport": "platform", "shelter": "no"}}, {"type": "node", "id": 2188694965, "lat": 43.2712774, "lon": 5.4035668, "tags": {"bench": "yes", "bus": "yes", "highway": "bus_stop", "name": "M\u00e9tro Sainte-Marguerite Dromel", "name:oc": "M\u00e8tro Santa Margarida - Drom\u00e8l", "public_transport": "platform", "shelter": "yes", "source:name:oc": "ieo-bdtopoc"}}, {"type": "node", "id": 2188694970, "lat": 43.2713568, "lon": 5.4037739, "tags": {"bench": "yes", "bus": "yes", "highway": "bus_stop", "name": "M\u00e9tro Sainte-Marguerite Dromel", "name:oc": "M\u00e8tro Santa Margarida - Drom\u00e8l", "public_transport": "platform", "shelter": "yes", "source:name:oc": "ieo-bdtopoc"}}, {"type": "node", "id": 2188694976, "lat": 43.2707739, "lon": 5.4081101, "tags": {"bench": "no", "bus": "yes", "highway": "bus_stop", "name": "Romain Rolland Belle Ombre", "name:oc": "Roman Rolland - B\u00e8la Ombra", "public_transport": "platform", "shelter": "no"}}, {"type": "node", "id": 2188694981, "lat": 43.2755921, "lon": 5.4169608, "tags": {"bench": "no", "bus": "yes", "highway": "bus_stop", "name": "Romain Rolland Pont-de-Vivaux", "name:oc": "Roman Rolland - P\u00f2nt dei Vivauts", "public_transport": "platform", "shelter": "no"}}, {"type": "node", "id": 2200072194, "lat": 43.2709027, "lon": 5.425237, "tags": {"bench": "no", "bus": "yes", "highway": "bus_stop", "name": "Bois-Fleuri", "name:oc": "B\u00f2sc Florit", "public_transport": "platform", "shelter": "no", "source": "opendata.regionpaca.fr"}}, {"type": "node", "id": 2200072195, "lat": 43.2709218, "lon": 5.4247611, "tags": {"bench": "yes", "bus": "yes", "highway": "bus_stop", "name": "Bois Fleury", "name:oc": "B\u00f2sc Florit", "public_transport": "platform", "shelter": "yes", "source": "opendata.regionpaca.fr"}}, {"type": "node", "id": 2200072196, "lat": 43.2718704, "lon": 5.4278362, "tags": {"bench": "no", "bus": "yes", "highway": "bus_stop", "name": "Les Roches", "name:oc": "Lei R\u00f2cas", "public_transport": "platform", "shelter": "no", "source": "opendata.regionpaca.fr"}}, {"type": "node", "id": 2200072197, "lat": 43.2719674, "lon": 5.4275088, "tags": {"bench": "yes", "bus": "yes", "highway": "bus_stop", "name": "Les Roches", "name:oc": "Lei R\u00f2cas", "public_transport": "platform", "shelter": "yes", "source": "opendata.regionpaca.fr"}}, {"type": "node", "id": 2200072198, "lat": 43.2745495, "lon": 5.426763, "tags": {"bench": "no", "bus": "yes", "highway": "bus_stop", "name": "Lyc\u00e9e Perrin Doize", "name:oc": "Lic\u00e8u Perrin Doize", "public_transport": "platform", "shelter": "no", "source": "opendata.regionpaca.fr"}}, {"type": "node", "id": 2200072199, "lat": 43.2747567, "lon": 5.4261262, "tags": {"bench": "yes", "bus": "yes", "highway": "bus_stop", "name": "Lyc\u00e9e Perrin Verdillon", "name:oc": "Lic\u00e8u Joan Perrin Verdillon", "public_transport": "platform", "shelter": "yes", "source": "opendata.regionpaca.fr"}}, {"type": "node", "id": 2200072200, "lat": 43.2736252, "lon": 5.4274338, "tags": {"bench": "no", "bus": "yes", "highway": "bus_stop", "name": "R\u00e9sidence du Lyc\u00e9e", "name:oc": "Resid\u00e9ncia dau Lic\u00e8u", "public_transport": "platform", "shelter": "no", "source": "opendata.regionpaca.fr"}}, {"type": "node", "id": 2200072201, "lat": 43.2736131, "lon": 5.4272513, "tags": {"bench": "no", "bus": "yes", "highway": "bus_stop", "name": "R\u00e9sidence du Lyc\u00e9e", "name:oc": "Resid\u00e9ncia dau Lic\u00e8u", "public_transport": "platform", "shelter": "no", "source": "opendata.regionpaca.fr"}}, {"type": "node", "id": 2200072205, "lat": 43.2701943, "lon": 5.4227407, "tags": {"bench": "yes", "bus": "yes", "highway": "bus_stop", "name": "Saint-Tronc", "name:oc": "Centron", "public_transport": "platform", "shelter": "yes", "source": "opendata.regionpaca.fr", "source:name:oc": "ieo-bdtopoc", "tactile_paving": "yes"}}, {"type": "node", "id": 2201872200, "lat": 43.2698151, "lon": 5.4238167, "tags": {"bench": "no", "bus": "yes", "highway": "bus_stop", "name": "Saint-Tronc Clair Matin", "name:oc": "Centron - Matin Clar", "public_transport": "platform", "shelter": "no", "source": "opendata.regionpaca.fr", "source:name:oc": "ieo-bdtopoc"}}, {"type": "node", "id": 2201872204, "lat": 43.2699377, "lon": 5.4238453, "tags": {"bench": "no", "bus": "yes", "highway": "bus_stop", "name": "Saint-Tronc Clair Matin", "name:oc": "Centron - Matin Clar", "public_transport": "platform", "shelter": "no", "source": "opendata.regionpaca.fr", "source:name:oc": "ieo-bdtopoc"}}, {"type": "node", "id": 2201872205, "lat": 43.2678227, "lon": 5.4268968, "tags": {"bench": "no", "bus": "yes", "highway": "bus_stop", "name": "Mauriac Saint-Cyr", "public_transport": "platform", "shelter": "no"}}, {"type": "node", "id": 2201872206, "lat": 43.2679478, "lon": 5.4265338, "tags": {"bench": "no", "bus": "yes", "highway": "bus_stop", "name": "Mauriac Saint-Cyr", "public_transport": "platform", "shelter": "no"}}, {"type": "node", "id": 2201872212, "lat": 43.2667753, "lon": 5.4268966, "tags": {"bench": "no", "bus": "yes", "highway": "bus_stop", "name": "Les Jardins de Flore", "public_transport": "platform", "shelter": "no"}}, {"type": "node", "id": 2201872216, "lat": 43.2670088, "lon": 5.4272296, "tags": {"bench": "no", "bus": "yes", "highway": "bus_stop", "name": "Les Jardins de Flore", "public_transport": "platform", "shelter": "no"}}, {"type": "node", "id": 2201872219, "lat": 43.2677915, "lon": 5.4199908, "tags": {"bench": "no", "bus": "yes", "highway": "bus_stop", "name": "Wiesel Vallon de Toulouse", "public_transport": "platform", "shelter": "no", "tactile_paving": "no"}}, {"type": "node", "id": 2201872222, "lat": 43.2679388, "lon": 5.4198124, "tags": {"bench": "no", "bus": "yes", "highway": "bus_stop", "name": "Wiesel Vallon de Toulouse", "public_transport": "platform", "shelter": "no", "tactile_paving": "no"}}, {"type": "node", "id": 2201872225, "lat": 43.2668047, "lon": 5.4244933, "tags": {"bench": "no", "bus": "yes", "highway": "bus_stop", "name": "Vallon de Toulouse", "public_transport": "platform", "shelter": "no"}}, {"type": "node", "id": 2201872228, "lat": 43.2663991, "lon": 5.4241177, "tags": {"bench": "no", "bus": "yes", "highway": "bus_stop", "name": "Vallon de Toulouse", "public_transport": "platform", "shelter": "no", "tactile_paving": "no"}}, {"type": "node", "id": 2201872257, "lat": 43.2698818, "lon": 5.4238268, "tags": {"bus": "yes", "name": "Saint-Tronc Clair Matin", "name:oc": "Centron - Matin Clar", "public_transport": "stop_position"}}, {"type": "node", "id": 2269499295, "lat": 43.2589417, "lon": 5.4029543, "tags": {"bench": "yes", "bin": "no", "bus": "yes", "highway": "bus_stop", "lit": "yes", "name": "Aiguier Trioulet", "name:oc": "Aiguier - Triolet", "public_transport": "platform", "shelter": "yes", "source": "opendata.regionpaca.fr", "source:name:oc": "ieo-bdtopoc", "tactile_paving": "no"}}, {"type": "node", "id": 2269499296, "lat": 43.2593733, "lon": 5.4025273, "tags": {"bench": "no", "bin": "yes", "bus": "yes", "highway": "bus_stop", "lit": "yes", "name": "Aiguier Trioulet", "name:oc": "Aiguier - Triolet", "public_transport": "platform", "shelter": "no", "source": "opendata.regionpaca.fr", "tactile_paving": "no"}}, {"type": "node", "id": 2272665250, "lat": 43.2719781, "lon": 5.4088551, "tags": {"bench": "no", "bus": "yes", "highway": "bus_stop", "name": "Platanes Romain Rolland", "name:oc": "Platanas - Roman Rolland", "public_transport": "platform", "shelter": "no"}}, {"type": "node", "id": 2272665251, "lat": 43.2720028, "lon": 5.4065171, "tags": {"bench": "no", "bus": "yes", "highway": "bus_stop", "name": "Trinitaires Huveaune", "name:oc": "Trinitaris - V\u00e8una", "network": "RTM", "network:wikidata": "Q3454986", "public_transport": "platform", "shelter": "no", "source:name:oc": "ieo-bdtopoc"}}, {"type": "node", "id": 2272665252, "lat": 43.27119, "lon": 5.4072967, "tags": {"bench": "no", "bus": "yes", "highway": "bus_stop", "name": "Trinitaires Romain Rolland", "name:oc": "Trinitaris - Roman Rolland", "network": "RTM", "network:wikidata": "Q3454986", "public_transport": "platform", "shelter": "no", "tactile_paving": "no"}}, {"type": "node", "id": 2324232970, "lat": 43.2702157, "lon": 5.4077452, "tags": {"bench": "yes", "bin": "no", "bus": "yes", "highway": "bus_stop", "name": "Belle Ombre Romain Rolland", "name:oc": "B\u00e8la Ombra - Roman Rolland", "public_transport": "platform", "shelter": "yes", "source": "surcey 2018", "source:name:oc": "ieo-bdtopoc", "tactile_paving": "no"}}, {"type": "node", "id": 2324232973, "lat": 43.2683178, "lon": 5.409957, "tags": {"bench": "no", "bin": "no", "bus": "yes", "highway": "bus_stop", "lit": "yes", "name": "Coll\u00e8ge Pasteur", "name:oc": "Coll\u00e8gi Pasteur", "public_transport": "platform", "shelter": "no", "source": "opendata.regionpaca.fr", "tactile_paving": "yes"}}, {"type": "node", "id": 2324232974, "lat": 43.268239, "lon": 5.413936, "tags": {"bench": "no", "bus": "yes", "highway": "bus_stop", "lit": "yes", "name": "Claudel Mairie 9-10", "name:oc": "Claudel - Comuna 9-10", "public_transport": "platform", "shelter": "no", "source": "opendata.regionpaca.fr", "tactile_paving": "yes"}}, {"type": "node", "id": 2324232975, "lat": 43.2683468, "lon": 5.4139265, "tags": {"bench": "no", "bus": "yes", "highway": "bus_stop", "lit": "yes", "name": "Claudel Mairie 9-10", "name:oc": "Claudel - Comuna 9-10", "public_transport": "platform", "shelter": "no", "source": "opendata.regionpaca.fr", "tactile_paving": "yes"}}, {"type": "node", "id": 2324232977, "lat": 43.2681839, "lon": 5.4123428, "tags": {"bench": "no", "bus": "yes", "highway": "bus_stop", "name": "Parc Fleuri", "name:oc": "Pargue Florit", "public_transport": "platform", "shelter": "no", "source": "opendata.regionpaca.fr", "tactile_paving": "yes"}}, {"type": "node", "id": 2324232979, "lat": 43.2680073, "lon": 5.4171608, "tags": {"bench": "no", "bus": "yes", "highway": "bus_stop", "name": "Les Micocouliers", "public_transport": "platform", "shelter": "no", "source": "opendata.regionpaca.fr", "tactile_paving": "yes"}}, {"type": "node", "id": 2324232980, "lat": 43.2681776, "lon": 5.4165917, "tags": {"bench": "yes", "bus": "yes", "highway": "bus_stop", "name": "Les Micocouliers", "public_transport": "platform", "shelter": "yes", "source": "opendata.regionpaca.fr"}}, {"type": "node", "id": 2353685559, "lat": 43.2627035, "lon": 5.4124501, "tags": {"bus": "yes", "name": "H\u00f4pital Sainte-Marguerite", "name:oc": "Espitau de Santa Margarida", "public_transport": "stop_position", "source:name:oc": "ieo-bdtopoc"}}, {"type": "node", "id": 2388000185, "lat": 43.2679426, "lon": 5.4118334, "tags": {"bus": "yes", "name": "Parc Fleuri", "name:oc": "Pargue Florit", "public_transport": "stop_position"}}, {"type": "node", "id": 2388000194, "lat": 43.2682324, "lon": 5.4122629, "tags": {"bus": "yes", "name": "Parc Fleuri", "name:oc": "Pargue Florit", "public_transport": "stop_position"}}, {"type": "node", "id": 2388000198, "lat": 43.2682891, "lon": 5.4098814, "tags": {"bus": "yes", "name": "Coll\u00e8ge Pasteur", "name:oc": "Coll\u00e8gi Pasteur", "public_transport": "stop_position"}}, {"type": "node", "id": 2388000411, "lat": 43.2710631, "lon": 5.4028723, "tags": {"bench": "no", "bus": "yes", "highway": "bus_stop", "name": "Sainte-Marguerite Dromel", "name:oc": "Santa Margarida - Drom\u00e8l", "public_transport": "platform", "shelter": "no", "source:name:oc": "ieo-bdtopoc"}}, {"type": "node", "id": 2388000414, "lat": 43.2711433, "lon": 5.4072683, "tags": {"bus": "yes", "name": "Trinitaires Romain Rolland", "name:oc": "Trinitaris - Roman Rolland", "public_transport": "stop_position"}}, {"type": "node", "id": 2388000416, "lat": 43.2712239, "lon": 5.4032774, "tags": {"bus": "yes", "name": "M\u00e9tro Sainte-Marguerite Dromel", "name:oc": "M\u00e8tro Santa Margarida - Drom\u00e8l", "public_transport": "stop_position", "source:name:oc": "ieo-bdtopoc"}}, {"type": "node", "id": 2388000421, "lat": 43.271301, "lon": 5.4034772, "tags": {"bus": "yes", "name": "M\u00e9tro Sainte-Marguerite Dromel", "name:oc": "M\u00e8tro Santa Margarida - Drom\u00e8l", "public_transport": "stop_position", "source:name:oc": "ieo-bdtopoc"}}, {"type": "node", "id": 2388000424, "lat": 43.2713746, "lon": 5.4036656, "tags": {"bus": "yes", "name": "M\u00e9tro Sainte-Marguerite Dromel", "name:oc": "M\u00e8tro Santa Margarida - Drom\u00e8l", "public_transport": "stop_position", "source:name:oc": "ieo-bdtopoc"}}, {"type": "node", "id": 2388000442, "lat": 43.2724012, "lon": 5.4110619, "tags": {"bus": "yes", "name": "Pauline Ripert", "name:oc": "Paulina - Rip\u00e8rt", "public_transport": "stop_position", "source:name:oc": "ieo-bdtopoc"}}, {"type": "node", "id": 2388000528, "lat": 43.2741803, "lon": 5.4146453, "tags": {"bus": "yes", "name": "La Sauvag\u00e8re", "name:oc": "La Sauvatgiera", "public_transport": "stop_position"}}, {"type": "node", "id": 2388000576, "lat": 43.2756267, "lon": 5.4168873, "tags": {"bus": "yes", "name": "Romain Rolland Pont-de-Vivaux", "name:oc": "Roman Rolland - P\u00f2nt dei Vivauts", "public_transport": "stop_position"}}, {"type": "node", "id": 2396653637, "lat": 43.266176, "lon": 5.4084166, "tags": {"bus": "yes", "name": "Sainte-Marguerite Vauthier", "name:oc": "Santa Margarida - Vautier", "public_transport": "stop_position"}}, {"type": "node", "id": 2396653638, "lat": 43.2682133, "lon": 5.406367, "tags": {"bus": "yes", "name": "Sainte-Marguerite", "name:oc": "Santa Margarida", "public_transport": "stop_position"}}, {"type": "node", "id": 2396653639, "lat": 43.2683165, "lon": 5.4058009, "tags": {"bus": "yes", "name": "Sainte-Marguerite", "name:oc": "Santa Margarida", "public_transport": "stop_position", "source:name:oc": "ieo-bdtopoc"}}, {"type": "node", "id": 2396680490, "lat": 43.2543823, "lon": 5.4207283, "tags": {"bus": "yes", "name": "All\u00e9e des Pins", "name:oc": "Andana dei Pins", "public_transport": "stop_position", "source:name:oc": "ieo-bdtopoc"}}, {"type": "node", "id": 2396680491, "lat": 43.2545648, "lon": 5.4204526, "tags": {"bus": "yes", "name": "All\u00e9e des Pins", "name:oc": "Andana dei Pins", "public_transport": "stop_position", "source:name:oc": "ieo-bdtopoc"}}, {"type": "node", "id": 2396680501, "lat": 43.2586832, "lon": 5.4173097, "tags": {"bus": "yes", "name": "Le Cabot", "name:oc": "Lo Cab\u00f2t", "public_transport": "stop_position", "source:name:oc": "ieo-bdtopoc"}}, {"type": "node", "id": 2396680502, "lat": 43.2590576, "lon": 5.4169181, "tags": {"bus": "yes", "name": "Le Cabot", "name:oc": "Lo Cab\u00f2t", "public_transport": "stop_position", "source:name:oc": "ieo-bdtopoc"}}, {"type": "node", "id": 2396680512, "lat": 43.2567014, "lon": 5.419504, "tags": {"bus": "yes", "name": "Le Redon La Panouse", "name:oc": "Lo Redon - La Panosa", "public_transport": "stop_position", "source:name:oc": "ieo-bdtopoc"}}, {"type": "node", "id": 2397771170, "lat": 43.257855, "lon": 5.4034564, "tags": {"bench": "no", "bin": "no", "bus": "yes", "highway": "bus_stop", "lit": "yes", "name": "La Verdi\u00e8re", "name:oc": "fixme:Aiguier - Cantini", "public_transport": "platform", "shelter": "no", "source": "Marseille Provence M\u00e9tropole Open Data 2013", "source:name:oc": "ieo-bdtopoc", "tactile_paving": "no"}}, {"type": "node", "id": 2397771171, "lat": 43.2581337, "lon": 5.4034198, "tags": {"bench": "no", "bin": "no", "bus": "yes", "highway": "bus_stop", "lit": "yes", "name": "La Verdi\u00e8re", "name:oc": "fixme:Aiguier - Cantini", "public_transport": "platform", "shelter": "no", "source": "Marseille Provence M\u00e9tropole Open Data 2013", "source:name:oc": "ieo-bdtopoc", "tactile_paving": "no"}}, {"type": "node", "id": 2397771172, "lat": 43.2558962, "lon": 5.405406, "tags": {"bench": "no", "bin": "no", "bus": "yes", "highway": "bus_stop", "lit": "yes", "name": "Aiguier C.N.R.S.", "name:oc": "Aiguier - C.N.R.S.", "public_transport": "platform", "shelter": "no", "source": "Marseille Provence M\u00e9tropole Open Data 2013", "source:name:oc": "ieo-bdtopoc", "tactile_paving": "no"}}, {"type": "node", "id": 2397771173, "lat": 43.2561629, "lon": 5.4052583, "tags": {"bench": "no", "bin": "no", "bus": "yes", "highway": "bus_stop", "lit": "yes", "name": "Aiguier C.N.R.S.", "name:oc": "Aiguier - C.N.R.S.", "public_transport": "platform", "shelter": "no", "source": "Marseille Provence M\u00e9tropole Open Data 2013", "source:name:oc": "ieo-bdtopoc", "tactile_paving": "no"}}, {"type": "node", "id": 2397771174, "lat": 43.2508094, "lon": 5.4138619, "tags": {"bench": "no", "bus": "yes", "highway": "bus_stop", "name": "Aiguier CPCAM", "name:oc": "Aiguier - CPCAM", "public_transport": "platform", "shelter": "no", "source": "Marseille Provence M\u00e9tropole Open Data 2013", "source:name:oc": "ieo-bdtopoc"}}, {"type": "node", "id": 2397771175, "lat": 43.2508886, "lon": 5.4140946, "tags": {"bench": "yes", "bus": "yes", "highway": "bus_stop", "name": "Aiguier CPCAM", "name:oc": "Aiguier - CPCAM", "public_transport": "platform", "shelter": "yes", "source": "Marseille Provence M\u00e9tropole Open Data 2013", "source:name:oc": "ieo-bdtopoc"}}, {"type": "node", "id": 2397771176, "lat": 43.2529397, "lon": 5.4090414, "tags": {"bench": "no", "bin": "yes", "bus": "yes", "highway": "bus_stop", "name": "Aiguier Saint-Jacques", "name:oc": "Aiguier - Sant Jaume", "public_transport": "platform", "shelter": "no", "source": "Marseille Provence M\u00e9tropole Open Data 2013", "source:name:oc": "ieo-bdtopoc", "tactile_paving": "no"}}, {"type": "node", "id": 2397771179, "lat": 43.2534982, "lon": 5.4086089, "tags": {"bus": "yes", "highway": "bus_stop", "name": "Aiguier Saint-Jacques", "name:oc": "Aiguier - Sant Jaume", "public_transport": "platform", "shelter": "yes", "source": "Marseille Provence M\u00e9tropole Open Data 2013", "source:name:oc": "ieo-bdtopoc"}}, {"type": "node", "id": 2397771181, "lat": 43.2567006, "lon": 5.410763, "tags": {"bench": "yes", "bus": "yes", "highway": "bus_stop", "name": "La Gaye", "public_transport": "platform", "shelter": "yes", "source": "survey 2025-02-04"}}, {"type": "node", "id": 2397771184, "lat": 43.2531082, "lon": 5.4138079, "tags": {"bench": "no", "bus": "yes", "highway": "bus_stop", "name": "Chemin Colline Saint-Joseph", "name:oc": "Camin C\u00f2la de Sant Jos\u00e8p", "public_transport": "platform", "shelter": "no", "source": "Marseille Provence M\u00e9tropole Open Data 2013", "source:name:oc": "ieo-bdtopoc"}}, {"type": "node", "id": 2397771188, "lat": 43.253885, "lon": 5.4132154, "tags": {"bench": "yes", "bin": "no", "bus": "yes", "highway": "bus_stop", "lit": "yes", "name": "Chemin Colline Saint-Joseph", "name:oc": "Camin C\u00f2la de Sant Jos\u00e8p", "public_transport": "platform", "shelter": "yes", "source": "Marseille Provence M\u00e9tropole Open Data 2013", "source:name:oc": "ieo-bdtopoc", "tactile_paving": "no"}}, {"type": "node", "id": 2397771192, "lat": 43.2379058, "lon": 5.4322428, "tags": {"bus": "yes", "name": "Stade de Luminy", "name:oc": "Estadi de Lumini", "public_transport": "stop_position", "source": "Marseille Provence M\u00e9tropole Open Data 2013"}}, {"type": "node", "id": 2397771195, "lat": 43.2487466, "lon": 5.4406343, "tags": {"bus": "yes", "name": "Grands Pins", "name:oc": "Pin\u00e0s", "public_transport": "stop_position", "source": "Marseille Provence M\u00e9tropole Open Data 2013", "source:name:oc": "ieo-bdtopoc"}}, {"type": "node", "id": 2397771196, "lat": 43.2519982, "lon": 5.4111747, "tags": {"bench": "yes", "bin": "yes", "bus": "yes", "highway": "bus_stop", "lit": "yes", "name": "Hesp\u00e9rides Montval", "name:oc": "Esperidas - Montval", "public_transport": "platform", "shelter": "yes", "source": "Marseille Provence M\u00e9tropole Open Data 2013", "source:name:oc": "ieo-bdtopoc", "tactile_paving": "no"}}, {"type": "node", "id": 2397771197, "lat": 43.2519454, "lon": 5.4109708, "tags": {"bench": "no", "bin": "yes", "bus": "yes", "highway": "bus_stop", "lit": "no", "name": "Hesp\u00e9rides Montval", "name:oc": "Esperidas - Montval", "public_transport": "platform", "shelter": "no", "source": "Marseille Provence M\u00e9tropole Open Data 2013", "source:name:oc": "ieo-bdtopoc", "tactile_paving": "no"}}, {"type": "node", "id": 2397771201, "lat": 43.237886, "lon": 5.432252, "tags": {"bus": "yes", "name": "Stade de Luminy", "name:oc": "Estadi de Lumini", "public_transport": "stop_position", "source": "Marseille Provence M\u00e9tropole Open Data 2013", "source:name:oc": "ieo-bdtopoc"}}, {"type": "node", "id": 2397771203, "lat": 43.251409, "lon": 5.4149978, "tags": {"bench": "no", "bus": "yes", "description": "lignes 46-A/ 46S-A/ 48T-A/", "highway": "bus_stop", "name": "Saint-Joseph Aiguier", "name:oc": "Sant Jos\u00e8p - Aiguier", "public_transport": "platform", "shelter": "no", "source": "Marseille Provence M\u00e9tropole Open Data 2013", "source:name:oc": "ieo-bdtopoc"}}, {"type": "node", "id": 2397771204, "lat": 43.2521239, "lon": 5.4189743, "tags": {"bench": "yes", "bus": "yes", "highway": "bus_stop", "name": "Saint-Joseph Bon Pasteur", "name:oc": "Sant Jos\u00e8p - B\u00f2n Pastor", "public_transport": "platform", "shelter": "yes", "source": "Marseille Provence M\u00e9tropole Open Data 2013", "source:name:oc": "ieo-bdtopoc"}}, {"type": "node", "id": 2397771205, "lat": 43.252179, "lon": 5.4187781, "tags": {"bench": "yes", "bin": "yes", "bus": "yes", "highway": "bus_stop", "name": "Saint-Joseph Bon Pasteur", "name:oc": "Sant Jos\u00e8p - B\u00f2n Pastor", "public_transport": "platform", "shelter": "yes", "source": "Marseille Provence M\u00e9tropole Open Data 2013", "source:name:oc": "ieo-bdtopoc"}},