{"version": 0.6, "generator": "Overpass API 0.7.62.11 87bfad18", "osm3s": {"timestamp_osm_base": "2026-03-24T08:57:19Z", "copyright": "The data included in this document is from www.openstreetmap.org. The data is made available under ODbL."}, "elements": [{"type": "node", "id": 827778936, "lat": 43.3015251, "lon": 5.3958748}, {"type": "node", "id": 827780597, "lat": 43.3015236, "lon": 5.3956947}, {"type": "node", "id": 827783417, "lat": 43.3092113, "lon": 5.4017089}, {"type": "node", "id": 827783537, "lat": 43.3024979, "lon": 5.3979234}, {"type": "node", "id": 827783923, "lat": 43.2995679, "lon": 5.3975755}, {"type": "node", "id": 827785779, "lat": 43.3024235, "lon": 5.3976013}, {"type": "node", "id": 827787439, "lat": 43.3025574, "lon": 5.3966105}, {"type": "node", "id": 827788711, "lat": 43.2995861, "lon": 5.3975733}, {"type": "node", "id": 827789709, "lat": 43.2995959, "lon": 5.3975296}, {"type": "node", "id": 827791678, "lat": 43.3024225, "lon": 5.397604}, {"type": "node", "id": 827792764, "lat": 43.302288, "lon": 5.3979375}, {"type": "node", "id": 827793332, "lat": 43.3025131, "lon": 5.3975805}, {"type": "node", "id": 827794116, "lat": 43.30257, "lon": 5.3965449}, {"type": "node", "id": 827794711, "lat": 43.3025469, "lon": 5.3965801}, {"type": "node", "id": 827795126, "lat": 43.309248, "lon": 5.4016594}, {"type": "node", "id": 827799051, "lat": 43.3014758, "lon": 5.3957233}, {"type": "node", "id": 827801020, "lat": 43.3025483, "lon": 5.3965981}, {"type": "node", "id": 827802229, "lat": 43.3024314, "lon": 5.3975894}, {"type": "node", "id": 827803424, "lat": 43.3025309, "lon": 5.3978298}, {"type": "node", "id": 827805448, "lat": 43.3030125, "lon": 5.3970114}, {"type": "node", "id": 827808064, "lat": 43.3092332, "lon": 5.4016535}, {"type": "node", "id": 827808738, "lat": 43.3024968, "lon": 5.3979081}, {"type": "node", "id": 827816342, "lat": 43.3024015, "lon": 5.3976342}, {"type": "node", "id": 827820559, "lat": 43.3024621, "lon": 5.3979147}, {"type": "node", "id": 827830569, "lat": 43.3092182, "lon": 5.4017245}, {"type": "node", "id": 827844162, "lat": 43.3025831, "lon": 5.3965448}, {"type": "node", "id": 827846790, "lat": 43.2995978, "lon": 5.3975616}, {"type": "node", "id": 827855544, "lat": 43.3024102, "lon": 5.3975879}, {"type": "node", "id": 827869872, "lat": 43.3016215, "lon": 5.3958167}, {"type": "node", "id": 827870932, "lat": 43.3031366, "lon": 5.3969615}, {"type": "node", "id": 827896618, "lat": 43.3025924, "lon": 5.3965584}, {"type": "node", "id": 827902930, "lat": 43.3024775, "lon": 5.3975847}, {"type": "node", "id": 827904304, "lat": 43.2995828, "lon": 5.3975211}, {"type": "node", "id": 827916469, "lat": 43.3025383, "lon": 5.3979233}, {"type": "node", "id": 827919766, "lat": 43.3024983, "lon": 5.3979284}, {"type": "node", "id": 827927484, "lat": 43.302635, "lon": 5.3975665}, {"type": "node", "id": 827928210, "lat": 43.3026543, "lon": 5.3978122}, {"type": "node", "id": 827935050, "lat": 43.3023891, "lon": 5.3976184}, {"type": "node", "id": 827969308, "lat": 43.2995646, "lon": 5.3975233}, {"type": "node", "id": 827977275, "lat": 43.3015717, "lon": 5.3956665}, {"type": "node", "id": 827977939, "lat": 43.3022769, "lon": 5.3978185}, {"type": "node", "id": 828002541, "lat": 43.3092329, "lon": 5.4017304}, {"type": "node", "id": 828007460, "lat": 43.3092213, "lon": 5.4016615}, {"type": "node", "id": 828015138, "lat": 43.3030267, "lon": 5.3969735}, {"type": "node", "id": 828018244, "lat": 43.3030878, "lon": 5.3971256}, {"type": "node", "id": 1594619889, "lat": 43.3112751, "lon": 5.4027174, "tags": {"addr:city": "Marseille", "addr:housenumber": "24", "brand": "Intermarch\u00e9 Super", "brand:wikidata": "Q3153200", "brand:wikipedia": "fr:Intermarch\u00e9", "name": "Intermarch\u00e9 Super", "name:oc": "Intermercat Super", "operator": "Somefrai", "phone": "+33 4 91 18 04 80", "shop": "supermarket", "source:name:oc": "ieo-bdtopoc", "website": "https://www.intermarche.com/", "wheelchair": "yes"}}, {"type": "node", "id": 1594633520, "lat": 43.3068371, "lon": 5.3999839, "tags": {"name": "nioub", "shop": "hifi"}}, {"type": "node", "id": 1628125191, "lat": 43.316732, "lon": 5.4047249, "tags": {"addr:housenumber": "60", "brand": "Dome N Bio", "name": "Dome N Bio", "organic": "only", "shop": "convenience"}}, {"type": "node", "id": 1700107236, "lat": 43.3076691, "lon": 5.3957628, "tags": {"addr:city": "Marseille", "addr:housenumber": "127", "brand": "Fiat", "brand:wikidata": "Q27597", "brand:wikipedia": "fr:Fiat", "name": "Chutes Lavies Automobiles", "operator": "Chutes Lavies Automobiles", "second_hand": "yes", "shop": "car"}}, {"type": "node", "id": 1700152953, "lat": 43.302237, "lon": 5.3946126, "tags": {"brand": "Picard", "brand:wikidata": "Q3382454", "brand:wikipedia": "en:Picard Surgel\u00e9s", "check_date:opening_hours": "2023-08-29", "name": "Picard", "opening_hours": "Mo-Sa 09:00-19:30; Su 09:00-12:45", "operator": "Picard", "phone": "+33 4 91 62 04 49", "shop": "frozen_food", "website": "https://magasins.picard.fr/574-picard-marseille-liberation"}}, {"type": "node", "id": 1870102010, "lat": 43.304022, "lon": 5.4012267, "tags": {"amenity": "fuel", "brand": "TotalEnergies", "brand:wikidata": "Q154037", "brand:wikipedia": "fr:Total (entreprise)", "check_date": "2024-09-01", "compressed_air": "yes", "fuel:GTL_diesel": "yes", "fuel:diesel": "yes", "fuel:e10": "yes", "fuel:lpg": "yes", "fuel:octane_98": "yes", "name": "TotalEnergies", "old_brand": "Elf", "opening_hours": "24/7", "ref:FR:prix-carburants": "13004005", "shop": "convenience;gas", "source": "survey 2014", "vending": "fuel", "vending_machine": "fuel", "website": "https://store.totalenergies.fr/fr_FR/NF010453"}}, {"type": "node", "id": 1870149202, "lat": 43.2983023, "lon": 5.3976776, "tags": {"brand": "Picard", "brand:wikidata": "Q3382454", "brand:wikipedia": "fr:Picard Surgel\u00e9s", "check_date:opening_hours": "2023-04-06", "name": "Picard", "opening_hours": "Mo-Sa 09:00-20:00; Su 09:00-12:45", "operator": "Picard", "phone": "+33 4 91 85 29 62", "shop": "frozen_food", "website": "https://magasins.picard.fr/571-picard-marseille-george", "wheelchair": "yes"}}, {"type": "node", "id": 1870164290, "lat": 43.3105248, "lon": 5.4009048, "tags": {"name": "Le Verger de Manon", "shop": "greengrocer"}}, {"type": "node", "id": 1897947126, "lat": 43.2986843, "lon": 5.396948, "tags": {"brand": "Weldom", "brand:wikidata": "Q16683226", "brand:wikipedia": "fr:Weldom", "name": "Weldom", "opening_hours": "Mo-Fr 09:00-12:00,14:00-19:00; Sa 09:00-19:00", "shop": "doityourself", "wheelchair": "yes"}}, {"type": "node", "id": 2031102961, "lat": 43.3027239, "lon": 5.4010157, "tags": {"check_date": "2024-06-11", "name": "Le Fournil du Jarret", "shop": "bakery"}}, {"type": "node", "id": 2174798903, "lat": 43.3081177, "lon": 5.4002876, "tags": {"addr:city": "Marseille", "addr:housenumber": "148", "brand": "Lidl", "brand:website": "http://www.lidl.fr", "brand:wikidata": "Q151954", "brand:wikipedia": "en:Lidl", "name": "Lidl", "opening_hours": "Mo-Sa 08:30-20:00", "operator": "Lidl", "ref:FR:NAF": "47.11D", "ref:FR:SIREN": "343262622", "ref:FR:SIRET": "34326262217572", "shop": "supermarket", "wheelchair": "yes"}}, {"type": "node", "id": 2174798904, "lat": 43.3083614, "lon": 5.4004005, "tags": {"addr:city": "Marseille", "addr:housenumber": "150", "brand": "Picard", "brand:wikidata": "Q3382454", "brand:wikipedia": "en:Picard Surgel\u00e9s", "check_date:opening_hours": "2021-08-05", "name": "Picard", "opening_hours": "Mo-Th 09:00-13:00,14:30-19:30; Fr,Sa 09:00-19:30; Su 09:00-12:45", "operator": "Picard", "phone": "+33 4 91 43 91 60", "shop": "frozen_food", "website": "https://magasins.picard.fr/567-picard-marseille-chartreux", "wheelchair": "yes"}}, {"type": "node", "id": 2456098116, "lat": 43.2973609, "lon": 5.4080181, "tags": {"addr:country": "FR", "name": "Le Moulin d'Ha\u00efti", "shop": "bakery", "source": "cadastre-dgi-fr source : Direction G\u00e9n\u00e9rale des Imp\u00f4ts - Cadastre. Mise \u00e0 jour : 2013", "wheelchair": "limited"}}, {"type": "node", "id": 2459286957, "lat": 43.3026379, "lon": 5.3976005, "tags": {"addr:city": "Marseille", "addr:housenumber": "14", "source": "cadastre-dgi-fr source : Direction G\u00e9n\u00e9rale des Imp\u00f4ts - Cadastre. Mise \u00e0 jour : 2013"}}, {"type": "node", "id": 2459797459, "lat": 43.3015773, "lon": 5.3958433, "tags": {"addr:city": "Marseille", "addr:housenumber": "18", "source": "cadastre-dgi-fr source : Direction G\u00e9n\u00e9rale des Imp\u00f4ts - Cadastre. Mise \u00e0 jour : 2013"}}, {"type": "node", "id": 2460914918, "lat": 43.3030256, "lon": 5.3960666, "tags": {"addr:city": "Marseille", "addr:housenumber": "27", "addr:postcode": "13004", "addr:street": "Boulevard Philippon", "email": "ecrire@librairielessauvages.fr", "name": "Librairie Les Sauvages", "opening_hours": "Tu-Sa 10:00-13:00, 15:00-19:00", "phone": "+33 9 55 80 21 18", "shop": "books", "source": "cadastre-dgi-fr source : Direction G\u00e9n\u00e9rale des Imp\u00f4ts - Cadastre. Mise \u00e0 jour : 2013", "website": "https://librairielessauvages.fr/"}}, {"type": "node", "id": 3207891803, "lat": 43.2976163, "lon": 5.401233, "tags": {"brand": "Carglass", "brand:wikidata": "Q1035997", "brand:wikipedia": "de:Carglass", "name": "Carglass", "service:vehicle:glass": "yes", "shop": "car_repair", "source": "survey 2014"}}, {"type": "node", "id": 3207907064, "lat": 43.2989571, "lon": 5.4012783, "tags": {"brand": "Optical Center", "brand:wikidata": "Q3354448", "brand:wikipedia": "fr:Optical Center", "contact:phone": "+33 4 91 22 02 20", "email": "marseille-sakakini@optical-center.com", "name": "Optical Center", "opening_hours": "Mo-Sa 09:00-19:00", "shop": "optician", "source": "survey 2014", "website": "https://opticien.optical-center.fr/45-opticien-marseille-sakakini-optical-center"}}, {"type": "node", "id": 3207907065, "lat": 43.2990343, "lon": 5.4005464, "tags": {"name": "ASB coiffure", "shop": "hairdresser", "source": "survey 2014"}}, {"type": "node", "id": 3207916390, "lat": 43.2998285, "lon": 5.4005122, "tags": {"name": "Le Mohican", "shop": "kiosk", "source": "survey 2014"}}, {"type": "node", "id": 3207924148, "lat": 43.3003465, "lon": 5.4005003, "tags": {"name": "Massilia voyages", "shop": "travel_agency", "source": "survey 2014"}}, {"type": "node", "id": 3207927605, "lat": 43.300891, "lon": 5.4010382, "tags": {"name": "Arthur Bonnet", "shop": "kitchen", "source": "survey 2014"}}, {"type": "node", "id": 3207947276, "lat": 43.3010391, "lon": 5.4004303, "tags": {"brand": "Franprix", "brand:wikidata": "Q2420096", "brand:wikipedia": "fr:Franprix", "name": "Franprix", "opening_hours": "Mo-Sa 07:30-21:30; Su 09:00-20:00", "phone": "+33 9 70 17 14 14", "shop": "convenience", "source": "survey 2014", "website": "https://www.franprix.fr/magasins/6895"}}, {"type": "node", "id": 3440661144, "lat": 43.3072623, "lon": 5.4047997, "tags": {"name": "Alimentation - chez Manssoura", "note": "Commerce de proximit\u00e9 avec un choix de fruits et l\u00e9gumes de saison.", "phone": "+33 4 91 85 26 08", "shop": "supermarket"}}, {"type": "node", "id": 3440682251, "lat": 43.3071106, "lon": 5.4057427, "tags": {"name": "Boulangerie Patisserie", "note": "\"Les plaisirs sucr\u00e9s de Micellef\"", "shop": "bakery"}}, {"type": "node", "id": 3440682537, "lat": 43.3070949, "lon": 5.4058244, "tags": {"name": "Tabac Presse", "note": "Avec vente de tickets RTM.", "shop": "tobacco"}}, {"type": "node", "id": 3440698728, "lat": 43.3074139, "lon": 5.4035162, "tags": {"name": "Boucherie Chez J. Marc", "shop": "butcher"}}, {"type": "node", "id": 3440710642, "lat": 43.3075863, "lon": 5.403213, "tags": {"addr:city": "Marseille", "addr:postcode": "13004", "addr:street": "Boulevard de Roux", "brand": "Le Petit Casino", "brand:wikidata": "Q89029249", "name": "Le Petit Casino", "shop": "convenience"}}, {"type": "node", "id": 3440711062, "lat": 43.3076854, "lon": 5.4028794, "tags": {"addr:city": "Marseille", "addr:postcode": "13004", "addr:street": "Rue Saint-Bruno", "name": "Boulangerie Patisserie", "shop": "bakery"}}, {"type": "node", "id": 3441153395, "lat": 43.3077221, "lon": 5.4027118, "tags": {"addr:postcode": "13004", "name": "Carr\u00e9 des Marques", "opening_hours": "Mo-Sa 09:00-19:00", "phone": "+33 9 52 75 07 67", "shop": "clothes"}}, {"type": "node", "id": 3441349596, "lat": 43.3077477, "lon": 5.4024123, "tags": {"name": "Coiffure Dany", "phone": "+33 4 91 86 20 58", "shop": "hairdresser"}}, {"type": "node", "id": 3441640016, "lat": 43.3072274, "lon": 5.4043761, "tags": {"check_date": "2023-12-18", "craft": "dressmaker", "name": "Multiretouches", "shop": "tailor"}}, {"type": "node", "id": 3442789699, "lat": 43.3033674, "lon": 5.4037071, "tags": {"female": "yes", "male": "yes", "name": "Coiffeur Rouge", "phone": "+33 4 91 49 18 79", "shop": "hairdresser"}}, {"type": "node", "id": 3442818000, "lat": 43.303322, "lon": 5.4032997, "tags": {"shop": "florist"}}, {"type": "node", "id": 3442818001, "lat": 43.3033101, "lon": 5.4032014, "tags": {"brand": "Vival", "brand:wikidata": "Q7937525", "brand:wikipedia": "en:Vival (shop)", "contact:housenumber": "103", "name": "Vival", "opening_hours": "Mo-Sa 08:00-13:00; Su 08:00-13:00", "phone": "+33 4 91 49 08 76", "shop": "convenience", "website": "https://magasins.vival.fr/fr/s/vival-marseille-la-blancarde"}}, {"type": "node", "id": 3442818098, "lat": 43.3032184, "lon": 5.4038948, "tags": {"addr:city": "Marseille", "addr:housenumber": "110", "name": "Alimentation de nuit", "shop": "convenience"}}, {"type": "node", "id": 3442821896, "lat": 43.3031871, "lon": 5.4024225, "tags": {"addr:city": "Marseille", "addr:postcode": "13004", "addr:street": "Boulevard de la Blancarde", "check_date": "2023-12-18", "name": "Seggio Primeur", "shop": "greengrocer"}}, {"type": "node", "id": 3442822594, "lat": 43.3032369, "lon": 5.4027434, "tags": {"addr:city": "Marseille", "addr:postcode": "13004", "addr:street": "Boulevard de la Blancarde", "check_date": "2023-12-18", "name": "My Way", "phone": "+33 4 91 34 49 85", "shop": "tailor"}}, {"type": "node", "id": 3535313745, "lat": 43.3016645, "lon": 5.3962298, "tags": {"name": "Garage Banck", "shop": "car_repair"}}, {"type": "node", "id": 3646381163, "lat": 43.3071577, "lon": 5.4092131, "tags": {"brand": "Le Petit Casino", "brand:wikidata": "Q89029249", "name": "Le Petit Casino", "shop": "convenience"}}, {"type": "node", "id": 4122998090, "lat": 43.3066225, "lon": 5.3997779, "tags": {"addr:city": "Marseille", "addr:housenumber": "120", "check_date:opening_hours": "2024-01-09", "name": "Les d\u00e9lices de D\u00e9lia", "opening_hours": "Sa-Th 06:00-21:00", "shop": "bakery"}}, {"type": "node", "id": 4122998092, "lat": 43.3068869, "lon": 5.3998814, "tags": {"brand": "Vival", "brand:wikidata": "Q7937525", "brand:wikipedia": "en:Vival (shop)", "name": "Vival", "shop": "convenience"}}, {"type": "node", "id": 4122998093, "lat": 43.3068704, "lon": 5.3999173, "tags": {"laundry_service": "no", "name": "Laverie Automatique", "opening_hours": "Mo-Su,PH 07:00-20:00", "self_service": "yes", "shop": "laundry"}}, {"type": "node", "id": 4122998098, "lat": 43.3086426, "lon": 5.4002231, "tags": {"name": "Point Laverie", "shop": "laundry"}}, {"type": "node", "id": 4122998099, "lat": 43.309555, "lon": 5.400456, "tags": {"addr:city": "Marseille", "addr:housenumber": "177", "name": "Le Jardin des Chartreux", "name:oc": "Lo Jardin dei Chartr\u00f3s", "shop": "florist", "source:name:oc": "ieo-bdtopoc"}}, {"type": "node", "id": 4122998100, "lat": 43.3092245, "lon": 5.4003807, "tags": {"addr:city": "Marseille", "addr:housenumber": "169", "brand": "Utile", "brand:wikidata": "Q2529029", "brand:wikipedia": "en:Syst\u00e8me U", "name": "Utile", "shop": "convenience"}}, {"type": "node", "id": 4122998101, "lat": 43.3094565, "lon": 5.400655, "tags": {"shop": "greengrocer"}}, {"type": "node", "id": 4122998102, "lat": 43.3100351, "lon": 5.4005821, "tags": {"addr:city": "Marseille", "addr:housenumber": "189", "name": "Le fournil des Chartreux", "name:oc": "La Glorieta dei Chartr\u00f3s", "shop": "bakery"}}, {"type": "node", "id": 4122998103, "lat": 43.3097375, "lon": 5.4005129, "tags": {"addr:city": "Marseille", "addr:housenumber": "183", "name": "Librairie Papeterie Journaux", "name:oc": "Librari\u00e1 Papetari\u00e1 Jornaus", "shop": "stationery", "source:name:oc": "ieo-bdtopoc"}}, {"type": "node", "id": 4127983363, "lat": 43.3088264, "lon": 5.4002494, "tags": {"addr:city": "Marseille", "addr:housenumber": "155", "name": "Hair Art", "opening_hours": "Mo-Sa 09:00-18:00", "shop": "hairdresser", "wheelchair": "limited"}}, {"type": "node", "id": 4127983364, "lat": 43.309279, "lon": 5.4003953, "tags": {"addr:city": "Marseille", "addr:postcode": "13004", "addr:street": "Avenue des Chartreux", "name": "Le petit Bazar", "shop": "gift"}}, {"type": "node", "id": 4127983365, "lat": 43.3093294, "lon": 5.4004146, "tags": {"addr:city": "Marseille", "addr:housenumber": "171", "shop": "hairdresser"}}, {"type": "node", "id": 4127983366, "lat": 43.3097199, "lon": 5.4005089, "tags": {"addr:city": "Marseille", "addr:postcode": "13004", "addr:street": "Avenue des Chartreux", "shop": "newsagent"}}, {"type": "node", "id": 4127983367, "lat": 43.3098304, "lon": 5.4005355, "tags": {"addr:city": "Marseille", "addr:housenumber": "185", "name": "Eden Viandes Boucherie", "opening_hours": "Tu-Sa 08:00-12:30,16:00-19:15", "phone": "+33 4 91 62 32 20", "shop": "butcher"}}, {"type": "node", "id": 4127983369, "lat": 43.3099822, "lon": 5.4007907, "tags": {"name": "Germaine Fleurs", "shop": "florist"}}, {"type": "node", "id": 4127983370, "lat": 43.3100846, "lon": 5.4008024, "tags": {"addr:city": "Marseille", "addr:housenumber": "190", "name": "Alimentation Phoc\u00e9enne", "name:oc": "Alimentacion Foceana", "shop": "greengrocer", "source:name:oc": "ieo-bdtopoc"}}, {"type": "node", "id": 4127983371, "lat": 43.3100339, "lon": 5.4007982, "tags": {"addr:city": "Marseille", "addr:postcode": "13004", "addr:street": "Avenue des Chartreux", "name": "CUT", "shop": "hairdresser"}}, {"type": "node", "id": 4352649517, "lat": 43.3151144, "lon": 5.3980452, "tags": {"shop": "greengrocer"}}, {"type": "node", "id": 4352650456, "lat": 43.3146489, "lon": 5.3973613, "tags": {"name": "Boucherie Chez Martine et G\u00e9rard", "opening_hours": "Tu-Sa 08:30-12:30,16:00-19:00", "shop": "butcher"}}, {"type": "node", "id": 4352650457, "lat": 43.3150529, "lon": 5.3979849, "tags": {"name": "Lea Fourn\u00e9e des Chutes Lavie", "shop": "bakery"}}, {"type": "node", "id": 4352650458, "lat": 43.3143347, "lon": 5.3961337, "tags": {"brand": "U Express", "brand:wikidata": "Q2529029", "brand:wikipedia": "fr:Syst\u00e8me U", "name": "U Express", "opening_hours": "Mo-Sa 08:30-19:30", "shop": "convenience", "website": "https://www.magasins-u.com/magasin/uexpress-marseillechuteslavie.m90617"}}, {"type": "node", "id": 4352651689, "lat": 43.315088, "lon": 5.3980184, "tags": {"name": "La Chute Fleurie", "shop": "florist"}}, {"type": "node", "id": 4352651944, "lat": 43.3149709, "lon": 5.3979178, "tags": {"shop": "hairdresser"}}, {"type": "node", "id": 4818714292, "lat": 43.3021286, "lon": 5.3956768, "tags": {"addr:floor": "0", "check_date:opening_hours": "2023-08-29", "name": "Laverie automatique", "opening_hours": "Mo-Su,PH 06:00-22:00", "self_service": "yes", "shop": "laundry", "wheelchair": "yes"}}, {"type": "node", "id": 4917661421, "lat": 43.2983866, "lon": 5.4026652, "tags": {"shop": "bakery"}}, {"type": "node", "id": 5247044763, "lat": 43.3043746, "lon": 5.4012894, "tags": {"name": "Point Midi Batteries", "shop": "car_parts"}}, {"type": "node", "id": 5247044764, "lat": 43.3046527, "lon": 5.4012129, "tags": {"name": "Kymco", "shop": "motorcycle"}}, {"type": "node", "id": 5407834233, "lat": 43.2987534, "lon": 5.3982952, "tags": {"addr:city": "Marseille", "addr:housenumber": "5", "branch": "Marseille", "brand": "day by day", "brand:wikidata": "Q48748765", "bulk_purchase": "only", "contact:email": "daybyday.marseille@gmail.com", "contact:phone": "+33 4 91 78 21 66", "dog": "no", "name": "day by day", "opening_hours": "Tu-Sa 09:30-13:00, 15:00-19:00", "organic": "yes", "shop": "convenience", "website": "https://daybyday-shop.com/magasin/marseille"}}, {"type": "node", "id": 5624086201, "lat": 43.3018309, "lon": 5.397322, "tags": {"addr:city": "Marseille", "addr:housenumber": "2", "branch": "Marseille 4", "brand": "Audition Conseil", "brand:wikidata": "Q104904635", "name": "Audition Conseil", "opening_hours": "Mo-Fr 09:00-12:00,14:00-18:00; Sa 09:00-12:00", "phone": "+33486770628", "shop": "hearing_aids", "wheelchair": "no"}}, {"type": "node", "id": 5634692317, "lat": 43.3028902, "lon": 5.3992564, "tags": {"name": "Under My Skin", "opening_hours": "Mo-Sa 10:00-13:00,14:00-19:00", "shop": "tattoo"}}, {"type": "node", "id": 6020161428, "lat": 43.3028037, "lon": 5.3978913, "tags": {"brand": "Bio C' Bon", "brand:wikidata": "Q54312551", "brand:wikipedia": "fr:Bio c'bon", "bulk_purchase": "yes", "contact:facebook": "https://www.facebook.com/biocbonfrance/", "contact:housenumber": "17", "contact:street": "Boulevard de la Blancarde", "name": "Bio C' Bon", "opening_hours": "Mo-Sa 09:00-20:00; Su 09:00-13:00", "organic": "only", "shop": "supermarket", "website": "https://www.bio-c-bon.eu/fr/nos_magasins/bio-c-bon-marseille-blancarde"}}, {"type": "node", "id": 6060152415, "lat": 43.302392, "lon": 5.3949648, "tags": {"addr:city": "Marseille", "addr:housenumber": "209", "addr:postcode": "13004", "addr:street": "Boulevard de la Lib\u00e9ration - G\u00e9n\u00e9ral de Monsabert", "check_date": "2023-04-16", "name": "Les F\u00e8ves Toqu\u00e9es", "opening_hours": "Mo-Sa 9:30-12:30; 14:30-19:00", "payment:cash": "yes", "payment:mastercard": "yes", "payment:visa": "yes", "shop": "chocolate;tea;cofee;gift", "website": "https://lesfevestoquees.fr/"}}, {"type": "node", "id": 6118499609, "lat": 43.2986883, "lon": 5.4038715, "tags": {"brand": "Spar", "brand:wikidata": "Q610492", "brand:wikipedia": "en:Spar (retailer)", "name": "Spar", "opening_hours": "Mo-Su 07:00-22:00", "operator": "SPAR", "phone": "+33 4 91 49 79 37", "shop": "convenience", "website": "https://magasins.spar.fr/fr/s/spar-marseille-boisson", "wheelchair": "yes"}}, {"type": "node", "id": 6124611786, "lat": 43.3030926, "lon": 5.402795, "tags": {"check_date": "2023-12-18", "name": "Boeuf chic bon go\u00fbt", "shop": "butcher"}}, {"type": "node", "id": 6124611787, "lat": 43.303095, "lon": 5.4017508, "tags": {"shop": "beauty"}}, {"type": "node", "id": 6124611788, "lat": 43.3027954, "lon": 5.4011717, "tags": {"name": "Le primeur du Jarret", "shop": "greengrocer"}}, {"type": "node", "id": 6124612985, "lat": 43.3027874, "lon": 5.401074, "tags": {"check_date": "2024-06-11", "name": "Cosmocoif", "shop": "hairdresser_supply"}}, {"type": "node", "id": 6125571893, "lat": 43.3003444, "lon": 5.4038129, "tags": {"shop": "beauty"}}, {"type": "node", "id": 6125571987, "lat": 43.298412, "lon": 5.4036809, "tags": {"shop": "tobacco"}}, {"type": "node", "id": 6125607485, "lat": 43.2998053, "lon": 5.4039778, "tags": {"female": "yes", "male": "yes", "shop": "hairdresser"}}, {"type": "node", "id": 6125607488, "lat": 43.2998616, "lon": 5.4003759, "tags": {"shop": "wine"}}, {"type": "node", "id": 6129511687, "lat": 43.2989612, "lon": 5.4030264, "tags": {"shop": "pet"}}, {"type": "node", "id": 6130017085, "lat": 43.3031115, "lon": 5.4004489, "tags": {"addr:housenumber": "45", "addr:street": "Boulevard Fran\u00e7oise Duparc", "brand": "Speedy", "brand:wikidata": "Q3492969", "brand:wikipedia": "fr:Speedy (entreprise)", "name": "Speedy", "opening_hours": "Mo-Fr 08:00-18:00; Sa 08:30-16:30", "phone": "+33491346600", "shop": "car_repair"}}, {"type": "node", "id": 6130017585, "lat": 43.2980418, "lon": 5.4036934, "tags": {"shop": "beauty"}}, {"type": "node", "id": 6170636879, "lat": 43.3029662, "lon": 5.4000907, "tags": {"name": "Univ'Hair", "shop": "hairdresser"}}, {"type": "node", "id": 6170636880, "lat": 43.3028108, "lon": 5.398172, "tags": {"email": "contact@gauchita.fr", "name": "Gauchita", "opening_hours": "Tu-Sa 10:00-13:00,14:30-19:00", "phone": "+33 6 46 36 16 49", "shop": "leather", "website": "https://www.gauchita.fr/"}}, {"type": "node", "id": 6170636913, "lat": 43.3027512, "lon": 5.3970716, "tags": {"name": "Fruits et legumes des 5 Avenues", "shop": "greengrocer"}}, {"type": "node", "id": 6170637392, "lat": 43.3023977, "lon": 5.3979215}, {"type": "node", "id": 6170637393, "lat": 43.3025909, "lon": 5.3975265, "tags": {"branch": "Marseille Blancarde", "brand": "Nicolas", "brand:website": "https://www.nicolas.com/", "brand:wikidata": "Q3340012", "brand:wikipedia": "fr:Nicolas (entreprise vinicole)", "contact:city": "Marseille", "contact:housenumber": "12", "contact:postcode": "13004", "contact:street": "Boulevard de la Blancarde", "name": "Nicolas", "operator": "\u00c9tablissements Nicolas", "operator:ref:FR:SIREN": "542066238", "ref:FR:NAF": "47.25Z", "ref:FR:SIRET": "54206623806773", "ref:vatin": "FR31542066238", "shop": "alcohol"}}, {"type": "node", "id": 6170637541, "lat": 43.3029379, "lon": 5.3996676, "tags": {"check_date": "2024-06-11", "name": "Les Mirettes de Marseille", "shop": "optician"}}, {"type": "node", "id": 6170637542, "lat": 43.3028176, "lon": 5.398235, "tags": {"name": "Mercerie", "shop": "sewing"}}, {"type": "node", "id": 6170637547, "lat": 43.3027585, "lon": 5.3971826, "tags": {"name": "Poissonnerie Fernande", "opening_hours": "Tu-Fr 07:15-13:00; Sa 07:00-13:15", "shop": "seafood"}}, {"type": "node", "id": 6278523128, "lat": 43.303461, "lon": 5.3970317, "tags": {"brand": "Zeeman", "brand:wikidata": "Q184399", "brand:wikipedia": "en:Zeeman (store)", "contact:housenumber": "12", "contact:street": "Boulevard du Jardin Zoologique", "name": "Zeeman", "opening_hours": "Mo-Fr 09:30-19:00", "shop": "clothes"}}, {"type": "node", "id": 6712195049, "lat": 43.3023884, "lon": 5.3942965, "tags": {"contact:housenumber": "6", "contact:street": "Rue d'Esp\u00e9randieu", "name": "MK Automobiles", "opening_hours": "Mo-Fr 08:00-12:00,14:00-18:00", "shop": "car_repair"}}, {"type": "node", "id": 6780857428, "lat": 43.3011528, "lon": 5.3919844, "tags": {"contact:housenumber": "116", "contact:phone": "+33 9 80 96 85 35", "contact:street": "Boulevard de la Lib\u00e9ration G\u00e9n\u00e9ral de Monsabert", "contact:website": "http://marseille.ordi-solidaire.fr/", "name": "Ordi Solidaire", "opening_hours": "Mo,Tu,Th-Sa 08:30-12:00,14:00-17:30", "repair": "yes", "second_hand": "yes", "shop": "computer", "wheelchair": "no"}}, {"type": "node", "id": 6790201461, "lat": 43.3023352, "lon": 5.3968466, "tags": {"addr:housenumber": "4", "brand": "Intermarch\u00e9", "name": "Intermarch\u00e9", "opening_hours": "Mo-Sa 08:30-20:30 Su 08:30 12:30", "phone": "+33 4 91 86 44 60", "shop": "supermarket", "wheelchair": "yes"}}, {"type": "node", "id": 6992368378, "lat": 43.3113246, "lon": 5.3959636, "tags": {"addr:city": "Marseille", "addr:housenumber": "49", "currency:EUR": "yes", "name": "Boucherie Prinderre Michel", "name:en": "Butcher Prinderre Michel", "opening_hours": "Tu-Sa 09:00-19:30", "payment:cards": "yes", "payment:cash": "yes", "shop": "butcher"}}, {"type": "node", "id": 7128096704, "lat": 43.3102, "lon": 5.4077294, "tags": {"addr:city": "Marseille", "addr:housenumber": "48", "description": "Conception et fabrication d\u2019\u00e9l\u00e9ments chauffants pour le chauffage des gaz, liquides, solides au service des professionnels et des particuliers.", "fax": "+33 4 91 06 06 77", "name": "R\u00e9sistances services", "opening_hours": "Mo-Th 07:30-12:00,13:30-18:30; Fr 07:30-12:00,13:30-17:00; Sa-Su off", "phone": "+33 4 91 61 12 27", "shop": "electrical", "website": "http://www.resistances-services.fr/"}}, {"type": "node", "id": 7203960088, "lat": 43.3032495, "lon": 5.3967201, "tags": {"addr:city": "Marseille", "contact:housenumber": "7", "contact:street": "Boulevard du Jardin Zoologique", "name": "Gipsy bijoux", "payment:cash": "yes", "shop": "jewelry"}}, {"type": "node", "id": 7334168807, "lat": 43.2996165, "lon": 5.3959881, "tags": {"brand": "Carrefour City", "brand:wikidata": "Q2940187", "brand:wikipedia": "fr:Carrefour City", "name": "Carrefour City", "opening_hours": "Mo-Sa 07:00-22:00; Su 09:00-22:00", "phone": "+33 4 91 32 92 41", "shop": "convenience", "website": "https://www.carrefour.fr/magasin/city-marseille-monte-cristo", "wheelchair": "yes"}}, {"type": "node", "id": 7335375429, "lat": 43.3144141, "lon": 5.3975762, "tags": {"name": "Pains & Mignardises", "payment:cash": "yes", "payment:credit_cards": "yes", "shop": "bakery"}}, {"type": "node", "id": 7590302831, "lat": 43.3018985, "lon": 5.3973274, "tags": {"check_date": "2025-10-19", "name": "La Venue d'Emma\u00fcs", "opening_hours": "Tu-Sa 11:00-13:00, 14:00-17:30", "shop": "charity", "wheelchair": "no"}}, {"type": "node", "id": 7710175763, "lat": 43.3032036, "lon": 5.4025917, "tags": {"addr:city": "Marseille", "addr:housenumber": "99", "contact:facebook": "https://www.facebook.com/pages/category/Hair-Salon/Redacoiffure-marseille13004-535442073162782/", "male": "yes", "name": "Reda Coiffure", "phone": "+33 7 53 60 99 70", "shop": "hairdresser"}}, {"type": "node", "id": 7829025628, "lat": 43.2987693, "lon": 5.3987912, "tags": {"name": "Alimentation G\u00e9n\u00e9rale", "shop": "convenience"}}, {"type": "node", "id": 7829025629, "lat": 43.2986446, "lon": 5.3986171, "tags": {"name": "Laady B Institut", "shop": "beauty"}}, {"type": "node", "id": 7829025630, "lat": 43.298758, "lon": 5.3983671, "tags": {"name": "es D\u00e9lices de Granoux", "shop": "bakery"}}, {"type": "node", "id": 7829025631, "lat": 43.2987591, "lon": 5.3981825, "tags": {"name": "V\u00e9ronique Coiffure", "shop": "hairdresser"}}, {"type": "node", "id": 7829025632, "lat": 43.2986264, "lon": 5.3979919, "tags": {"name": "Storia di Grano", "shop": "deli", "website": "https://storiadigrano.eatbu.com/?lang=fr"}}, {"type": "node", "id": 7829025633, "lat": 43.2986254, "lon": 5.3979295, "tags": {"name": "C\u00f4t\u00e9 Beaut\u00e9", "shop": "beauty"}}, {"type": "node", "id": 7829025634, "lat": 43.2986242, "lon": 5.3978819, "tags": {"butcher": "pork", "name": "La Maison du Charolais", "shop": "butcher"}}, {"type": "node", "id": 7829025636, "lat": 43.2986215, "lon": 5.3977767, "tags": {"name": "Royaume de la Chantilly", "shop": "deli"}}, {"type": "node", "id": 7829025637, "lat": 43.2987669, "lon": 5.3979067, "tags": {"name": "Ambre", "shop": "bakery"}}, {"type": "node", "id": 7829025638, "lat": 43.2988801, "lon": 5.3979054, "tags": {"name": "Boucherie du March\u00e9 S\u00e9bastopol", "shop": "butcher"}}, {"type": "node", "id": 7900578833, "lat": 43.3130354, "lon": 5.3971689, "tags": {"addr:city": "Marseille", "addr:housenumber": "93", "name": "FS Auto", "phone": "+33 4 84 26 36 32;+33 6 38 18 37 61", "second_hand": "yes", "service:vehicle": "rental", "service:vehicle:new_car_sales": "yes", "service:vehicle:used_car_sales": "yes", "shop": "car"}}, {"type": "node", "id": 7900660908, "lat": 43.3128344, "lon": 5.3971703, "tags": {"addr:city": "Marseille", "addr:housenumber": "62", "contact:facebook": "https://fr-fr.facebook.com/bymissmu/", "description": "Brocante Vintage.", "email": "bymissmu@gmail.com", "name": "By Missmu", "phone": "+33 6 14 27 62 13", "second_hand": "only", "shop": "antiques", "website": "https://missmu13.wordpress.com/"}}, {"type": "node", "id": 7924839652, "lat": 43.3118154, "lon": 5.4034064, "tags": {"addr:city": "Marseille", "addr:housenumber": "33", "brand": "Midas", "brand:wikidata": "Q3312613", "brand:wikipedia": "en:Midas (automotive service)", "contact:facebook": "https://www.facebook.com/MidasFr/", "name": "Midas", "operator": "Midas", "phone": "+33 4 91 62 98 98", "shop": "car_repair", "website": "https://www.midas.fr/"}}, {"type": "node", "id": 8328961088, "lat": 43.30989, "lon": 5.4005509, "tags": {"addr:city": "Marseille", "addr:housenumber": "187", "name": "Cave Conseil Chartreux", "name:oc": "Cr\u00f2ta Conceu Chartr\u00f3s", "opening_hours": "Tu-Sa 09:30-12:30,15:30-19:30", "phone": "+33 4 91 62 67 30", "shop": "wine", "source:name:oc": "ieo-bdtopoc", "website": "https://www.caveconseil.fr/"}}, {"type": "node", "id": 8328961089, "lat": 43.3029411, "lon": 5.3963983, "tags": {"addr:city": "Marseille", "addr:housenumber": "35", "name": "Bricoleurs de Douceurs", "opening_hours": "Tu-Sa 09:30-19:00; Su 09:30-13:00", "phone": "+33 4 91 05 06 26", "shop": "pastry", "website": "https://www.bricoleursdedouceurs.fr/", "wheelchair": "yes"}}, {"type": "node", "id": 8330279521, "lat": 43.3139337, "lon": 5.4029292, "tags": {"name": "Fruits et L\u00e9gunes Saint-Just", "shop": "greengrocer"}}, {"type": "node", "id": 8349767698, "lat": 43.3118752, "lon": 5.4024471, "tags": {"shop": "newsagent"}}, {"type": "node", "id": 8435169452, "lat": 43.3122436, "lon": 5.4031464, "tags": {"contact:housenumber": "50", "contact:street": "Boulevard de la F\u00e9d\u00e9ration", "name": "Le salon 641", "shop": "beauty"}}, {"type": "node", "id": 8435169464, "lat": 43.3110672, "lon": 5.4023707, "tags": {"check_date": "2023-08-15", "laundry_service": "no", "name": "Lavexpress", "opening_hours": "Mo-Su 07:00-23:00", "payment:contactless": "yes", "payment:mastercard": "yes", "payment:visa": "yes", "self_service": "yes", "shop": "laundry"}}, {"type": "node", "id": 8435169479, "lat": 43.310771, "lon": 5.4030579, "tags": {"addr:city": "Marseille", "addr:housenumber": "23", "addr:postcode": "13004", "addr:street": "Boulevard du Mar\u00e9chal Juin", "level": "0", "name": "Leader Sport", "opening_hours": "Tu-Su 10:00-12:30,13:30-18:00", "phone": "+33 4 91 80 04 46", "ref:FR:SIRET": "33413974800068", "shop": "sports", "start_date": "2018-06-01", "website": "https://www.leader-sport.com/"}}, {"type": "node", "id": 8435169513, "lat": 43.3114443, "lon": 5.4032631, "tags": {"name": "Alimentation de nuit", "shop": "convenience"}}, {"type": "node", "id": 8435169514, "lat": 43.3115088, "lon": 5.4032913, "tags": {"name": "Mondial Pare-Brise Marseille-Le Jarret", "service": "windscreen", "shop": "car_repair", "website": "https://www.mondialparebrise.fr/"}}, {"type": "node", "id": 8435191470, "lat": 43.3135638, "lon": 5.4022922, "tags": {"contact:housenumber": "31", "contact:street": "Avenue de Saint-Just", "name": "Patapluche", "shop": "pet_grooming"}}, {"type": "node", "id": 8435191472, "lat": 43.3134253, "lon": 5.402494, "tags": {"name": "My Flowers", "shop": "florist"}}, {"type": "node", "id": 8654952430, "lat": 43.2979377, "lon": 5.4002517, "tags": {"name": "Michael's Automobile", "shop": "car_repair"}}, {"type": "node", "id": 8741958026, "lat": 43.3015754, "lon": 5.397609, "tags": {"addr:postcode": "13004", "name": "Le Fournil d'Ornella", "opening_hours": "Mo,We-Sa 06:00-20:30; Su 06:00-20:00", "shop": "bakery"}}, {"type": "node", "id": 8743116600, "lat": 43.2959564, "lon": 5.4005132, "tags": {"name": "Le 55 Night Market", "shop": "supermarket"}}, {"type": "node", "id": 8855323261, "lat": 43.3041173, "lon": 5.398415, "tags": {"brand": "Carrefour City", "brand:wikidata": "Q2940187", "brand:wikipedia": "fr:Carrefour City", "name": "Carrefour City", "opening_hours": "Mo-Sa 07:00-21:00; Su 09:00-12:30", "phone": "+33 4 91 34 07 59", "ref:FR:SIRET": "85101905900019", "shop": "convenience", "source": "INSEE - 2022-03", "website": "https://www.carrefour.fr/magasin/city-marseille-chartreux", "wheelchair": "yes"}}, {"type": "node", "id": 8855323263, "lat": 43.3023224, "lon": 5.3947963, "tags": {"brand": "Carrefour Express", "brand:wikidata": "Q2940190", "name": "Carrefour Express", "opening_hours": "Mo-Sa 08:00-21:00; Su 09:00-21:00", "phone": "+33 4 91 50 22 47", "shop": "convenience", "website": "https://www.carrefour.fr/magasin/express-marseille-liberation"}}, {"type": "node", "id": 9401954569, "lat": 43.3026583, "lon": 5.398411, "tags": {"name": "Mistral Phone", "shop": "mobile_phone"}}, {"type": "node", "id": 9429082278, "lat": 43.3002875, "lon": 5.3893509, "tags": {"addr:city": "Marseille", "addr:housenumber": "64", "name": "Tir\u00e9 \u00e0 Part", "phone": "+33 4 91 42 63 17", "shop": "books"}}, {"type": "node", "id": 9439506587, "lat": 43.3063205, "lon": 5.4006104, "tags": {"name": "Jarret By Night", "opening_hours": "Mo-Su,PH 00:00-00:00", "shop": "convenience", "wheelchair": "no"}}, {"type": "node", "id": 9439512218, "lat": 43.3042203, "lon": 5.4007224, "tags": {"name": "Termina Blat", "shop": "pest_control"}}, {"type": "node", "id": 9439512239, "lat": 43.3041271, "lon": 5.4006993, "tags": {"name": "Allo Frangin", "opening_hours": "24/7", "ref:FR:SIRET": "82897121800023", "shop": "convenience", "source": "INSEE - 2021-12"}}, {"type": "node", "id": 9585488278, "lat": 43.3046502, "lon": 5.398932, "tags": {"indoor_seating": "yes", "name": "Boulangerie Boni", "opening_hours": "Tu-Fr 11:00-19:30; Sa 08:00-13:00", "outdoor_seating": "no", "shop": "bakery", "smoking": "no", "wheelchair": "no"}}, {"type": "node", "id": 9677599384, "lat": 43.3028433, "lon": 5.3988359, "tags": {"brand": "Auchan", "brand:wikidata": "Q758603", "name": "Auchan", "shop": "supermarket"}}, {"type": "node", "id": 9994346265, "lat": 43.3027422, "lon": 5.3972548, "tags": {"addr:city": "Marseille", "addr:housenumber": "3", "addr:postcode": "13004", "addr:street": "Boulevard de la Blancarde", "mobile_phone:repair": "yes", "name": "Tony Phone", "second_hand": "yes", "shop": "mobile_phone"}}, {"type": "node", "id": 10295636025, "lat": 43.3020012, "lon": 5.3978729, "tags": {"contact:housenumber": "11", "contact:phone": "+33 6 01 04 04 37", "contact:street": "Avenue du Mar\u00e9chal Foch", "craft": "electronics_repair", "name": "Mistral phone", "opening_hours": "Mo-Fr 10:00-12:30,13:30-19:00", "shop": "mobile_phone"}}, {"type": "node", "id": 10855840203, "lat": 43.314513, "lon": 5.3977192, "tags": {"name": "Speed Queen", "opening_hours": "Mo-Su 07:00-21:00", "self_service": "yes", "shop": "laundry"}}, {"type": "node", "id": 10857634394, "lat": 43.3077265, "lon": 5.3962264, "tags": {"brand": "Utile", "brand:wikidata": "Q2529029", "name": "Utile", "shop": "convenience"}}, {"type": "node", "id": 10968685750, "lat": 43.3090978, "lon": 5.4012437, "tags": {"name": "Acc\u00e8s Pro", "shop": "locksmith"}}, {"type": "node", "id": 10968685753, "lat": 43.3098618, "lon": 5.4011695, "tags": {"name": "G.M Coiffure", "shop": "hairdresser"}}, {"type": "node", "id": 10968685756, "lat": 43.3101765, "lon": 5.4005888, "tags": {"name": "Ka\u00eflia Beaut\u00e9", "shop": "beauty"}}, {"type": "node", "id": 10968685757, "lat": 43.3108603, "lon": 5.4006158, "tags": {"name": "Garage Chartreux", "shop": "car_repair"}}, {"type": "node", "id": 10968685761, "lat": 43.3099127, "lon": 5.4009081, "tags": {"cannabis:cbd": "only", "name": "L'Agachon", "shop": "cannabis"}}, {"type": "node", "id": 10968685763, "lat": 43.310735, "lon": 5.4006094, "tags": {"name": "Lise", "shop": "sewing"}}, {"type": "node", "id": 10968685766, "lat": 43.3099728, "lon": 5.400568, "tags": {"name": "Maison Gourmande", "shop": "pastry"}}, {"type": "node", "id": 10974314994, "lat": 43.3072229, "lon": 5.3998891, "tags": {"addr:city": "Marseille", "addr:housenumber": "130", "addr:postcode": "13004", "addr:street": "Avenue des Chartreux", "male": "yes", "name": "Coupe et barbier", "name:oc": "P\u00e8u e Barba", "opening_hours": "Mo-Su 09:00-19:30", "shop": "hairdresser", "source:name:oc": "ieo-bdtopoc"}}, {"type": "node", "id": 11107098734, "lat": 43.3055747, "lon": 5.3935291, "tags": {"female": "yes", "male": "yes", "name": "Les filles de l'hair", "shop": "hairdresser"}}, {"type": "node", "id": 11342005117, "lat": 43.3016783, "lon": 5.3984231, "tags": {"addr:city": "Marseille", "addr:housenumber": "1", "addr:postcode": "13004", "addr:street": "place Mar\u00e9chal Fayolle", "name": "l'Art de la Fromagerie", "opening_hours": "Tu-Fr 09:30-13:00,15:30-19:30; Sa 09:30-13:30,15:30-19:30; Su 09:30-12:30", "shop": "cheese", "website": "https://lartdelafromagerie.com/"}}, {"type": "node", "id": 11446167269, "lat": 43.298995, "lon": 5.4017126, "tags": {"name": "Alimentation g\u00e9n\u00e9rale", "opening_hours": "24/7", "shop": "grocery"}}, {"type": "node", "id": 11511158170, "lat": 43.3000109, "lon": 5.3975275, "tags": {"name": "Crinoline", "shop": "jewelry"}}, {"type": "node", "id": 11511158171, "lat": 43.3009004, "lon": 5.3974467, "tags": {"name": "\u00c9picerie Anis", "opening_hours": "Tu-Sa 09:30-14:00, 16:00-19:00; Mo 16:00-19:00", "shop": "convenience"}}, {"type": "node", "id": 11519120769, "lat": 43.303999, "lon": 5.4078874, "tags": {"contact:city": "Marseille 4eme Arrondissement", "contact:housenumber": "1", "contact:mobile": "+33 6 74 42 26 19", "contact:postcode": "13004", "contact:street": "Rue De Cadolive", "email": "contact@aguamundo.fr", "name": "Agua Mundo", "opening_hours": "Sa 13:00-18:00; Su 10:00-15:00", "ref:FR:SIRET": "98134728900010", "shop": "swimming_pool", "website": "https://aguamundo.fr/"}}, {"type": "node", "id": 11738797086, "lat": 43.3019257, "lon": 5.4027632, "tags": {"name": "Nourian S.A.S", "opening_hours": "Mo-Th 08:00-12:00,14:00-17:30; Fr 08:00-12:00", "shop": "car"}}, {"type": "node", "id": 11741417181, "lat": 43.3026022, "lon": 5.3956929, "tags": {"contact:housenumber": "227", "contact:street": "Boulevard de la Lib\u00e9ration - G\u00e9n\u00e9ral de Monsabert", "name": "Les Herbes Folles", "shop": "florist"}}, {"type": "node", "id": 11741421341, "lat": 43.302561, "lon": 5.3955194, "tags": {"check_date:opening_hours": "2025-10-19", "name": "Pressing Lib\u00e9ration", "opening_hours": "Mo-Sa 08:00-19:00", "shop": "dry_cleaning"}}, {"type": "node", "id": 11749608308, "lat": 43.3024117, "lon": 5.3950404, "tags": {"contact:housenumber": "211", "contact:street": "Boulevard de la Lib\u00e9ration - G\u00e9n\u00e9ral de Monsabert", "name": "La Touriale bouquinerie des 5 avenues", "opening_hours": "Tu-Sa 09:30-19:00", "second_hand": "yes", "shop": "books"}}, {"type": "node", "id": 11755313637, "lat": 43.3022375, "lon": 5.4046185, "tags": {"payment:cash": "yes", "shop": "supermarket"}}, {"type": "node", "id": 11757612071, "lat": 43.3104692, "lon": 5.4023036, "tags": {"name": "Express fermetures", "shop": "locksmith"}}, {"type": "node", "id": 11758155943, "lat": 43.2996557, "lon": 5.3986866, "tags": {"addr:city": "Marseille", "addr:postcode": "13004", "addr:street": "Rue des Orgues", "name": "Alimentation Ariana", "shop": "supermarket"}}, {"type": "node", "id": 11792543892, "lat": 43.3031999, "lon": 5.4025168, "tags": {"amenity": "bar", "name": "Le Tom Tip", "shop": "tobacco"}}, {"type": "node", "id": 11849564437, "lat": 43.3066993, "lon": 5.3946426, "tags": {"name": "Concept extensions", "shop": "hairdresser"}}, {"type": "node", "id": 11850800246, "lat": 43.2993226, "lon": 5.3963971, "tags": {"addr:housenumber": "80", "addr:street": "Rue Monte Cristo", "name": "La Caverne aux Mille Tissus", "opening_hours": "Mo-Fr 13:30-17:30", "phone": "+33 6 16 92 35 86", "shop": "fabric", "website": "https://la-caverne-aux-mille-tissus.com/"}}, {"type": "node", "id": 11851312114, "lat": 43.306717, "lon": 5.3948865, "tags": {"name": "Boulangerie patisserie", "shop": "vacant"}}, {"type": "node", "id": 11922770604, "lat": 43.3014387, "lon": 5.3929342, "tags": {"name": "Meubles M\u00e9nager Lib\u00e9ration", "shop": "appliance;furniture"}}, {"type": "node", "id": 11989662769, "lat": 43.3031738, "lon": 5.3969656, "tags": {"addr:housenumber": "4", "addr:postcode": "13004", "addr:street": "Boulevard du Jardin Zoologique", "email": "contact@trottecycles.fr", "name": "Trott'E Cycles", "opening_hours": "Tu-Fr 09:00-18:00; Sa 09:00-13:00", "phone": "+33 4 91 64 40 68", "shop": "bicycle", "website": "https://www.trottecycles.net"}}, {"type": "node", "id": 11991796499, "lat": 43.3104385, "lon": 5.4035525, "tags": {"contact:facebook": "https://facebook.com/107036931771206", "contact:housenumber": "24", "contact:postcode": "13004", "contact:street": "Bd du Mar\u00e9chal Juin", "contact:twitter": "http://twitter.com/reflexepbm", "email": "reflexeparebrise12@gmail.com", "name": "Reflexe pare-brise", "opening_hours": "Mo 14:00-18:00,09:00-12:00; Tu 14:00-18:00,09:00-12:00; We 14:00-18:00,09:00-12:00; Th 14:00-18:00,09:00-12:00; Fr 14:00-18:00,09:00-12:00; Sa 09:00-12:00;", "phone": "+33465965175", "shop": "car_repair", "website": "http://www.reflexeparebrise.fr/"}}, {"type": "node", "id": 12137941584, "lat": 43.3070066, "lon": 5.406146, "tags": {"brand": "Carrefour City", "brand:wikidata": "Q2940187", "name": "Carrefour City", "shop": "convenience"}}, {"type": "node", "id": 12207149770, "lat": 43.296237, "lon": 5.4055081, "tags": {"name": "\u00c0 fleur de pots", "shop": "florist"}}, {"type": "node", "id": 12207149771, "lat": 43.2962419, "lon": 5.4056228, "tags": {"name": "Les cadeaux de la Miroiterie", "shop": "glaziery"}}, {"type": "node", "id": 12207149772, "lat": 43.2962398, "lon": 5.4056956, "tags": {"name": "Au panier frais", "ref:FR:SIRET": "80198749600016", "shop": "greengrocer", "source": "INSEE - 2024-03"}}, {"type": "node", "id": 12290197014, "lat": 43.2994887, "lon": 5.3965679, "tags": {"name": "Garage B. Mistre", "ref:FR:SIRET": "05780642400016", "shop": "car_repair", "source": "INSEE - 2024-03"}}, {"type": "node", "id": 12290197022, "lat": 43.2994555, "lon": 5.3948, "tags": {"name": "Patrick mod\u00e9lisme", "ref:FR:SIRET": "33483239100034", "shop": "model", "source": "INSEE - 2024-03", "website": "https://www.patrickmodelisme.com/"}}, {"type": "node", "id": 12290197025, "lat": 43.2992819, "lon": 5.3937813, "tags": {"name": "Garage Monte Christo", "ref:FR:SIRET": "05680732400019", "shop": "car_repair", "source": "INSEE - 2024-03"}}, {"type": "node", "id": 12291734795, "lat": 43.303268, "lon": 5.397315, "tags": {"addr:housenumber": "7", "addr:street": "Avenue des Chartreux", "check_date": "2025-09-13", "check_date:diet:vegan": "2025-09-13", "diet:vegan": "yes", "name": "Inzu", "opening_hours": "We-Fr 08:30-18:30; Sa 09:30-18:30; Su 09:30-16:30", "outdoor_seating": "yes", "shop": "pastry", "takeaway": "yes"}}, {"type": "node", "id": 12299508701, "lat": 43.299443, "lon": 5.4005278, "tags": {"contact:city": "Marseille 4eme Arrondissement", "contact:housenumber": "4", "contact:phone": "+33 6 03 59 03 06", "contact:postcode": "13004", "contact:street": "Boulevard Sakakini", "name": "Leojade Cartouches", "opening_hours": "Mo-Tu 09:00-18:00; We 09:00-12:00; Th-Fr 09:00-18:00; Sa 09:00-11:45, 14:00-18:00", "ref:FR:SIRET": "81108486200036", "shop": "stationery", "website": "https://leojadecartouches.sumupstore.com/"}}, {"type": "node", "id": 12299660369, "lat": 43.2993564, "lon": 5.3959072, "tags": {"email": "secretariat-betel@outlook.fr", "name": "Boutique Betel", "opening_hours": "Mo-Fr 09:00-12:00,14:00-19:00; Sa 09:00-13:00", "operator": "Association Betel", "phone": "+33491025415", "shop": "charity", "website": "https://sites.google.com/view/betel-aide-reinsertion-france/action-sociale-marseille"}}, {"type": "node", "id": 12299660370, "lat": 43.2994609, "lon": 5.3970736, "tags": {"name": "Les jardins du midi", "ref:FR:SIRET": "51227720300042", "shop": "greengrocer", "source": "INSEE - 2024-03"}}, {"type": "node", "id": 12299660371, "lat": 43.299457, "lon": 5.3962035, "tags": {"email": "contact@garage-team-desenti.fr", "motorcycle:repair": "yes", "motorcycle:sales": "yes", "name": "Team Desenti", "phone": "+334 84 89 16 35", "ref:FR:SIRET": "83519098400012", "shop": "motorcycle", "source": "INSEE - 2024-03", "website": "https://www.garage-team-desenti.fr/"}}, {"type": "node", "id": 12299660372, "lat": 43.2994501, "lon": 5.3963685, "tags": {"shop": "car_repair"}}, {"type": "node", "id": 12330295470, "lat": 43.3073648, "lon": 5.3958682, "tags": {"name": "BB Christie Coiffure", "shop": "hairdresser"}}, {"type": "node", "id": 12330295471, "lat": 43.3074815, "lon": 5.3959931, "tags": {"name": "ECL Coiffure", "shop": "hairdresser"}}, {"type": "node", "id": 12330295472, "lat": 43.3078672, "lon": 5.3962887, "tags": {"name": "Wizwedge", "shop": "shoes"}}, {"type": "node", "id": 12330295473, "lat": 43.307933, "lon": 5.3963445, "tags": {"name": "Le fournil du siphon", "shop": "bakery"}}, {"type": "node", "id": 12330295474, "lat": 43.3079724, "lon": 5.396368, "tags": {"name": "l'Atelier des saveurs", "shop": "greengrocer"}}, {"type": "node", "id": 12330295477, "lat": 43.3079799, "lon": 5.3960564, "tags": {"shop": "convenience"}}, {"type": "node", "id": 12330415172, "lat": 43.3063375, "lon": 5.3958529, "tags": {"branch": "Auto AD Expert", "name": "l'Atelier de Casini", "phone": "+33 4 91 08 35 80", "shop": "car_repair"}}, {"type": "node", "id": 12330415173, "lat": 43.3063052, "lon": 5.3959709, "tags": {"shop": "hardware"}}, {"type": "node", "id": 12571123001, "lat": 43.3143159, "lon": 5.4027697, "tags": {"addr:street": "Avenue de Saint-Just", "brand": "Lidl", "brand:wikidata": "Q151954", "name": "Lidl", "opening_hours": "Mo-Sa 08:30-20:00; Su 08:30-12:00", "ref:FR:NAF": "47.11D", "ref:FR:SIREN": "343262622", "ref:FR:SIRET": "34326262226797", "shop": "supermarket"}}, {"type": "node", "id": 12679730101, "lat": 43.3017745, "lon": 5.4008602, "tags": {"contact:instagram": "BARBERR_BENCH", "male": "yes", "name": "Barber Bench", "phone": "+33 7 74 62 42 46", "shop": "hairdresser"}}, {"type": "node", "id": 12679788401, "lat": 43.3029883, "lon": 5.3961886, "tags": {"addr:housenumber": "29", "addr:postcode": "13004", "addr:street": "Boulevard Philippon", "female": "yes", "male": "yes", "name": "Oz Le salon", "opening_hours": "Tu-Th, Sa 09:00-19:00; Fr 09:00-20:30", "phone": "+33 4 91 95 78 32", "shop": "hairdresser"}}, {"type": "node", "id": 12707186101, "lat": 43.3162912, "lon": 5.397785, "tags": {"contact:city": "Marseille 4eme Arrondissement", "contact:housenumber": "110", "contact:phone": "+33 4 82 79 77 41", "contact:postcode": "13004", "contact:street": "Avenue Alexandre Fleming", "name": "Rapid Pare Brise", "opening_hours": "Mo-Th 09:00-12:00, 14:00-18:00; Fr 09:00-12:00, 14:00-17:00", "ref:FR:SIRET": "92107682400017", "shop": "car_repair", "website": "https://www.rapidparebrise-marseille4.fr"}}, {"type": "node", "id": 12749993601, "lat": 43.2996261, "lon": 5.3980285, "tags": {"addr:street": "Rue des Orgues", "contact:phone": "+33 4 91 34 22 65", "email": "contact@maison-hubert.com", "name": "Maison Hubert", "shop": "chocolate", "website": "https://maison-hubert.fr/"}}, {"type": "node", "id": 12803628464, "lat": 43.3105323, "lon": 5.4019354, "tags": {"name": "Allio Pi\u00e8ces Auto", "shop": "car_parts"}}, {"type": "node", "id": 12805847752, "lat": 43.3049124, "lon": 5.3990638, "tags": {"name": "Nozika", "shop": "books"}}, {"type": "node", "id": 12919168001, "lat": 43.3023056, "lon": 5.3969705, "tags": {"addr:housenumber": "8", "addr:postcode": "13004", "addr:street": "Avenue du Mar\u00e9chal Foch", "contact:instagram": "boulangeriepainpan", "name": "PAIN PAN !", "opening_hours": "Tu-Sa 07:00-19:30; Su 08:00-13:00", "shop": "bakery", "website": "https://www.painpan.fr/"}}, {"type": "node", "id": 13302285403, "lat": 43.2985878, "lon": 5.4001944, "tags": {"addr:housenumber": "16", "addr:postcode": "13004", "addr:street": "Rue Henri Juramy", "name": "Feuilletage", "phone": "+33 6 23 85 00 08", "shop": "pastry"}}, {"type": "node", "id": 13328493179, "lat": 43.3131706, "lon": 5.4061089, "tags": {"PMU": "yes", "lottery": "yes", "name": "Le vaisseau bleu", "shop": "tobacco"}}, {"type": "node", "id": 13533829071, "lat": 43.309662, "lon": 5.4013608, "tags": {"diet:vegetarian": "yes", "name": "Cerealia", "name:oc": "Cerealia", "opening_hours": "Mo-Sa 06:00-20:00", "outdoor_seating": "yes", "payment:contactless": "yes", "payment:mastercard": "yes", "payment:visa": "yes", "shop": "bakery", "source:name:oc": "ieo-bdtopoc"}}, {"type": "node", "id": 13533829073, "lat": 43.3098142, "lon": 5.401405, "tags": {"name": "Boucherie Herv\u00e9", "name:oc": "Bocari\u00e1 Arvei", "opening_hours": "Mo-Su 07:00-13:00,16:00-20:00", "phone": "+33 4 91 49 48 96", "shop": "butcher", "source": "cadastre-dgi-fr source : Direction G\u00e9n\u00e9rale des Imp\u00f4ts - Cadastre. Mise \u00e0 jour : 2010", "source:name:oc": "ieo-bdtopoc", "website": "https://www.boucherieherveetfils.fr/", "wheelchair": "yes"}}, {"type": "node", "id": 13546459201, "lat": 43.3008622, "lon": 5.4003293, "tags": {"addr:housenumber": "4", "addr:postcode": "13004", "addr:street": "Rue Capazza", "check_date": "2026-02-13", "check_date:opening_hours": "2026-02-13", "email": "whiteraven.shop13@gmail.com", "level": "0", "name": "White Raven", "opening_hours": "Tu-Sa 10:00-19:00", "phone": "+33634916849", "shop": "grocery"}}, {"type": "way", "id": 68960630, "nodes": [827969308, 827783923, 827788711, 827846790, 827789709, 827904304, 827969308], "tags": {"building": "yes", "shop": "kiosk", "source": "cadastre-dgi-fr source : Direction G\u00e9n\u00e9rale des Imp\u00f4ts - Cadastre. Mise \u00e0 jour : 2010"}}, {"type": "way", "id": 68970487, "nodes": [827803424, 827928210, 2459286957, 827927484, 827793332, 827902930, 827802229, 827785779, 827791678, 827855544, 827935050, 827816342, 827977939, 827792764, 6170637392, 827820559, 827808738, 827783537, 827919766, 827916469, 827803424], "tags": {"addr:city": "Marseille", "brand": "Monoprix", "brand:wikidata": "Q3321241", "brand:wikipedia": "fr:Monoprix (France)", "building": "retail", "building:levels": "1", "contact:housenumber": "14", "contact:street": "Boulevard de la Blancarde", "name": "Monoprix", "opening_hours": "Mo-Sa 08:00-21:00; Su 09:00-13:00", "operator": "Monoprix", "shop": "supermarket", "source": "cadastre-dgi-fr source : Direction G\u00e9n\u00e9rale des Imp\u00f4ts - Cadastre. Mise \u00e0 jour : 2010", "website": "https://www.monoprix.fr/171.html", "wheelchair": "yes"}}, {"type": "way", "id": 68975052, "nodes": [827844162, 827794116, 827794711, 827801020, 827787439, 827896618, 827844162], "tags": {"building": "yes", "name:signed": "no", "shop": "newsagent", "source": "cadastre-dgi-fr source : Direction G\u00e9n\u00e9rale des Imp\u00f4ts - Cadastre. Mise \u00e0 jour : 2010", "wall": "no"}}, {"type": "way", "id": 68979543, "nodes": [827869872, 827977275, 827780597, 827799051, 827778936, 2459797459, 827869872], "tags": {"brand": "Franprix", "brand:wikidata": "Q2420096", "building": "apartments", "name": "Franprix", "opening_hours": "Mo-Sa 07:30-21:00; Su 08:00-19:00", "shop": "convenience", "source": "cadastre-dgi-fr source : Direction G\u00e9n\u00e9rale des Imp\u00f4ts - Cadastre. Mise \u00e0 jour : 2013"}}, {"type": "way", "id": 68980386, "nodes": [827795126, 827808064, 828007460, 827783417, 827830569, 828002541, 827795126], "tags": {"building": "kiosk", "building:levels": "1", "indoor_seating": "no", "name": "Pain Pan!", "name:oc": "Pan Pan !", "note": "position incorrecte dans le cadastre", "opening_hours": "Mo-Sa 08:00-20:00", "outdoor_seating": "yes", "payment:cash": "yes", "payment:credit_cards": "yes", "shop": "bakery", "source": "Bing 2013", "source:name:oc": "ieo-bdtopoc"}}, {"type": "way", "id": 68985932, "nodes": [828018244, 827870932, 828015138, 827805448, 828018244], "tags": {"addr:city": "Marseille", "addr:country": "FR", "addr:housenumber": "2", "building": "yes", "name": "La Fourn\u00e9e d'INES", "opening_hours": "PH,Fr-We 06:30-20:30", "shop": "bakery", "source": "cadastre-dgi-fr source : Direction G\u00e9n\u00e9rale des Imp\u00f4ts - Cadastre. Mise \u00e0 jour : 2010"}}]}