{"version": 0.6, "generator": "Overpass API 0.7.62.11 87bfad18", "osm3s": {"timestamp_osm_base": "2026-03-24T09:07:36Z", "copyright": "The data included in this document is from www.openstreetmap.org. The data is made available under ODbL."}, "elements": [{"type": "node", "id": 829141477, "lat": 43.2909194, "lon": 5.3804825}, {"type": "node", "id": 829141719, "lat": 43.2910086, "lon": 5.3803157}, {"type": "node", "id": 829142235, "lat": 43.2910853, "lon": 5.3805722, "tags": {"addr:city": "Marseille", "addr:housenumber": "1"}}, {"type": "node", "id": 829160722, "lat": 43.2909492, "lon": 5.3804658}, {"type": "node", "id": 829175925, "lat": 43.2909686, "lon": 5.3806483}, {"type": "node", "id": 829180181, "lat": 43.2907996, "lon": 5.3804337, "tags": {"camera:direction": "210", "camera:mount": "building", "camera:type": "fixed", "check_date": "2025-11-17", "man_made": "surveillance", "surveillance": "public", "surveillance:type": "camera", "surveillance:zone": "town"}}, {"type": "node", "id": 829191230, "lat": 43.2909984, "lon": 5.3806316}, {"type": "node", "id": 829194390, "lat": 43.2909089, "lon": 5.380799}, {"type": "node", "id": 5046313714, "lat": 43.2908545, "lon": 5.3806173, "tags": {"addr:city": "Marseille", "addr:housenumber": "2"}}, {"type": "node", "id": 5046313715, "lat": 43.2910337, "lon": 5.3803996, "tags": {"addr:city": "Marseille", "addr:housenumber": "3"}}, {"type": "node", "id": 7553903657, "lat": 43.2911178, "lon": 5.380681, "tags": {"camera:mount": "building", "camera:type": "panning", "height": "3", "man_made": "surveillance", "surveillance": "public", "surveillance:signed": "no", "surveillance:type": "camera", "surveillance:zone": "town"}}, {"type": "node", "id": 7629748220, "lat": 43.290904, "lon": 5.3807826, "tags": {"camera:mount": "building", "camera:type": "panning", "check_date": "2025-11-15", "man_made": "surveillance", "surveillance": "public", "surveillance:type": "camera", "surveillance:zone": "town"}}, {"type": "node", "id": 7640135384, "lat": 43.291004, "lon": 5.3803183, "tags": {"camera:mount": "building", "camera:type": "panning", "check_date": "2025-11-17", "man_made": "surveillance", "surveillance": "public", "surveillance:type": "camera", "surveillance:zone": "town"}}, {"type": "node", "id": 7650484137, "lat": 43.2911141, "lon": 5.3806685, "tags": {"camera:mount": "building", "camera:type": "dome", "man_made": "surveillance", "surveillance": "public", "surveillance:type": "camera", "surveillance:zone": "town"}}, {"type": "node", "id": 7650484138, "lat": 43.2911083, "lon": 5.3806863, "tags": {"camera:mount": "building", "camera:type": "dome", "man_made": "surveillance", "surveillance": "public", "surveillance:type": "camera", "surveillance:zone": "town"}}, {"type": "node", "id": 7659403158, "lat": 43.2908001, "lon": 5.3804353, "tags": {"camera:direction": "130", "camera:mount": "building", "camera:type": "fixed", "check_date": "2025-11-17", "man_made": "surveillance", "surveillance": "public", "surveillance:type": "camera", "surveillance:zone": "town"}}, {"type": "node", "id": 7659403159, "lat": 43.2908009, "lon": 5.380433, "tags": {"camera:direction": "270", "camera:mount": "building", "camera:type": "fixed", "check_date": "2025-11-17", "man_made": "surveillance", "surveillance": "public", "surveillance:type": "camera", "surveillance:zone": "town"}}, {"type": "node", "id": 10281921567, "lat": 43.2834013, "lon": 5.3895687, "tags": {"amenity": "clinic", "description": "dentist", "healthcare": "clinic", "name": "Centre de Sante Dentaire Mutualite Fran\u00e7aise"}}, {"type": "node", "id": 12282272840, "lat": 43.2823359, "lon": 5.3792446, "tags": {"addr:housenumber": "203", "addr:street": "Rue Breteuil", "amenity": "clinic", "healthcare": "clinic", "healthcare:speciality": "ophthalmology", "level": "1", "name": "Institut M\u00e9diterran\u00e9en Oeil et Paupi\u00e8re", "opening_hours": "Mo-Fr 08:00-20:00; Sa 09:00-18:00", "operator": "Clinique Bouchard", "operator:type": "private", "phone": "+33 4 12 04 30 40", "short_name": "IMOP", "website": "https://imop-marseille.fr/"}}, {"type": "way", "id": 69125710, "nodes": [829191230, 829175925, 829141477, 829160722, 829191230], "tags": {"source": "cadastre-dgi-fr source : Direction G\u00e9n\u00e9rale des Imp\u00f4ts - Cadastre. Mise \u00e0 jour : 2010"}}, {"type": "way", "id": 69135783, "nodes": [7553903657, 7650484137, 829142235, 5046313715, 829141719, 7640135384, 7659403159, 829180181, 7659403158, 5046313714, 7629748220, 829194390, 7650484138, 7553903657], "tags": {"source": "cadastre-dgi-fr source : Direction G\u00e9n\u00e9rale des Imp\u00f4ts - Cadastre. Mise \u00e0 jour : 2010"}}, {"type": "relation", "id": 1084786, "members": [{"type": "way", "ref": 69135783, "role": "outer"}, {"type": "way", "ref": 69125710, "role": "inner"}], "tags": {"addr:city": "Marseille", "addr:housenumber": "98", "amenity": "police", "building": "yes", "building:levels": "6", "name": "Police nationale", "name:oc": "Pol\u00edcia Nacionala", "official_name": "Pr\u00e9fecture de Police", "official_name:oc": "Prefectura de Pol\u00edcia", "operator": "Police nationale", "operator:wikidata": "Q121484", "phone": "+33 4 88 77 59 92", "police:FR": "police", "roof:levels": "0.5", "roof:material": "roof_tiles", "roof:shape": "hipped", "source": "data.gouv.fr:Minist\u00e8re de l'Int\u00e9rieur - 10/2018", "type": "multipolygon", "wheelchair": "no", "wikidata": "Q61953961"}}]}