{"version": 0.6, "generator": "Overpass API 0.7.62.11 87bfad18", "osm3s": {"timestamp_osm_base": "2026-03-24T10:13:04Z", "copyright": "The data included in this document is from www.openstreetmap.org. The data is made available under ODbL."}, "elements": [{"type": "node", "id": 190233583, "lat": 43.3159869, "lon": 5.3843795, "tags": {"bus": "yes", "name": "Plombi\u00e8res Arnal", "name:oc": "Plomb\u00e8ras - Arnal", "public_transport": "stop_position", "source:name:oc": "ieo-bdtopoc"}}, {"type": "node", "id": 271321399, "lat": 43.3253886, "lon": 5.4003747, "tags": {"bus": "yes", "name": "Champfleuri", "name:oc": "Campflorit", "operator": "RTM", "public_transport": "stop_position", "source": "survey", "source:name:oc": "ieo-bdtopoc"}}, {"type": "node", "id": 304971521, "lat": 43.3234092, "lon": 5.3741139, "tags": {"bus": "yes", "name": "Casanova Barb\u00e8s", "name:oc": "Casan\u00f2va - Barb\u00e8s", "public_transport": "stop_position"}}, {"type": "node", "id": 304972226, "lat": 43.3244476, "lon": 5.3824144, "tags": {"bus": "yes", "name": "Gibes Moretti", "name:oc": "Gibas - Moretti", "public_transport": "stop_position", "source:name:oc": "ieo-bdtopoc"}}, {"type": "node", "id": 304975526, "lat": 43.3216046, "lon": 5.3894718, "tags": {"bus": "yes", "name": "Sainte-Marthe Bougie", "name:oc": "Santa Marta - Bogia", "public_transport": "stop_position", "source:name:oc": "ieo-bdtopoc"}}, {"type": "node", "id": 304975593, "lat": 43.3226466, "lon": 5.3894519, "tags": {"bus": "yes", "name": "Sainte-Marthe Bougie", "name:oc": "Santa Marta - Bogia", "public_transport": "stop_position", "source:name:oc": "ieo-bdtopoc"}}, {"type": "node", "id": 304975654, "lat": 43.3289873, "lon": 5.3878699, "tags": {"bus": "yes", "name": "Bertrandon", "name:oc": "Bertrandon", "public_transport": "stop_position"}}, {"type": "node", "id": 304975786, "lat": 43.323559, "lon": 5.3862557, "tags": {"bus": "yes", "name": "Coll\u00e8ge Clair Soleil", "name:oc": "Moretti - Rosiers", "public_transport": "stop_position", "source:name:oc": "ieo-bdtopoc"}}, {"type": "node", "id": 304976436, "lat": 43.323657, "lon": 5.3882528, "tags": {"bus": "yes", "name": "Moretti Saint-Marthe", "name:oc": "Moretti - Santa Marta", "public_transport": "stop_position", "source:name:oc": "ieo-bdtopoc"}}, {"type": "node", "id": 304979325, "lat": 43.342379, "lon": 5.3863212, "tags": {"bus": "yes", "name": "La Simiane", "name:oc": "La Simiana", "public_transport": "stop_position", "source:name:oc": "ieo-bdtopoc"}}, {"type": "node", "id": 304980100, "lat": 43.3458782, "lon": 5.3819347, "tags": {"bus": "yes", "name": "Coxe Massenet", "name:oc": "C\u00f2xe - Massenet", "public_transport": "stop_position", "source:name:oc": "ieo-bdtopoc"}}, {"type": "node", "id": 304980134, "lat": 43.3377596, "lon": 5.3943029, "tags": {"bus": "yes", "name": "Forge Dolet", "name:oc": "Farga - Dolet", "public_transport": "stop_position"}}, {"type": "node", "id": 304980138, "lat": 43.3369624, "lon": 5.3967976, "tags": {"bus": "yes", "name": "La Margeray", "name:oc": "La Margerai", "public_transport": "stop_position"}}, {"type": "node", "id": 304980435, "lat": 43.3332554, "lon": 5.4031762, "tags": {"bus": "yes", "name": "Les Flamants", "name:oc": "Lei Becaruts", "public_transport": "stop_position", "source": "survey", "source:name:oc": "ieo-bdtopoc"}}, {"type": "node", "id": 409924361, "lat": 43.3208381, "lon": 5.3713918, "tags": {"layer": "2", "level": "2", "name": "Bougainville", "name:oc": "Bougainville", "network": "RTM", "operator": "R\u00e9gie des Transports Marseillais", "public_transport": "stop_position", "railway": "stop", "station": "subway", "subway": "yes", "wheelchair": "no", "wikidata": "Q2921538", "wikipedia": "fr:Bougainville (m\u00e9tro de Marseille)"}}, {"type": "node", "id": 412365585, "lat": 43.3312109, "lon": 5.3931254, "tags": {"SNCF:stop_name": "Picon-Busserine.", "level": "0", "local_ref": "2", "name": "Picon-Busserine", "name:oc": "Picon - Busserina", "operator": "SNCF Gares & Connexions", "operator:wikidata": "Q3098278", "public_transport": "stop_position", "railway": "stop", "source:name:oc": "ieo-bdtopoc", "train": "yes", "uic_ref": "8775929", "wheelchair": "yes", "wikidata": "Q2308570", "wikipedia": "fr:Gare de Picon-Busserine"}}, {"type": "node", "id": 412366139, "lat": 43.3392767, "lon": 5.39069, "tags": {"level": "0", "local_ref": "2", "name": "Sainte-Marthe-en-Provence", "name:oc": "Santa Marta de Proven\u00e7a", "operator": "SNCF Gares & Connexions", "operator:wikidata": "Q3098278", "public_transport": "stop_position", "railway": "stop", "source:name:oc": "ieo-bdtopoc", "train": "yes", "wheelchair": "yes"}}, {"type": "node", "id": 412366488, "lat": 43.3519897, "lon": 5.3770877, "tags": {"local_ref": "2", "name": "Saint-Joseph-le-Castellas", "name:oc": "Sant Jos\u00e8p - Lo Castel\u00e0s", "operator": "SNCF Gares & Connexions", "operator:wikidata": "Q3098278", "public_transport": "stop_position", "railway": "stop", "source:name:oc": "ieo-bdtopoc", "train": "yes", "uic_ref": "8775931", "wheelchair": "yes"}}, {"type": "node", "id": 443317201, "lat": 43.3528345, "lon": 5.4158559, "tags": {"bus": "yes", "name": "L'Escalet", "name:oc": "L'Escalet", "public_transport": "stop_position", "source:name:oc": "ieo-bdtopoc"}}, {"type": "node", "id": 477015561, "lat": 43.3414432, "lon": 5.4085288, "tags": {"bus": "yes", "name": "G\u00e9raniums", "name:oc": "Geranioms", "public_transport": "stop_position", "source:name:oc": "ieo-bdtopoc"}}, {"type": "node", "id": 477015599, "lat": 43.3465649, "lon": 5.4081391, "tags": {"bus": "yes", "name": "Merlan Guynemer", "name:oc": "Merlon - Guynemer", "public_transport": "stop_position", "source:name:oc": "ieo-bdtopoc"}}, {"type": "node", "id": 477015856, "lat": 43.3415452, "lon": 5.4074163, "tags": {"bus": "yes", "name": "Merlan Tourelle", "name:oc": "Morlan - Torreta", "public_transport": "stop_position", "source:name:oc": "ieo-bdtopoc"}}, {"type": "node", "id": 477015869, "lat": 43.3486707, "lon": 5.3761047, "tags": {"bus": "yes", "name": "Saint-Joseph Les Lions", "name:oc": "Sant Jos\u00e8p - Lei Leons", "public_transport": "stop_position", "source:name:oc": "ieo-bdtopoc"}}, {"type": "node", "id": 477015870, "lat": 43.3491573, "lon": 5.3756366, "tags": {"bus": "yes", "name": "Saint-Joseph Les Lions", "name:oc": "Sant Jos\u00e8p - Lei Leons", "public_transport": "stop_position", "source:name:oc": "ieo-bdtopoc"}}, {"type": "node", "id": 622302175, "lat": 43.330512, "lon": 5.4043443, "tags": {"bench": "no", "bus": "yes", "highway": "bus_stop", "name": "Merlan Sainte-Marthe", "name:oc": "Morlan - Santa Marta", "public_transport": "platform", "shelter": "no", "source:name:oc": "ieo-bdtopoc", "wheelchair": "no"}}, {"type": "node", "id": 622302176, "lat": 43.3304062, "lon": 5.4044884, "tags": {"bench": "no", "bus": "yes", "highway": "bus_stop", "name": "Merlan Sainte-Marthe", "name:oc": "Morlan - Santa Marta", "public_transport": "platform", "shelter": "no", "source:name:oc": "ieo-bdtopoc", "wheelchair": "no"}}, {"type": "node", "id": 622302198, "lat": 43.332784, "lon": 5.4069328, "tags": {"bench": "no", "bus": "yes", "highway": "bus_stop", "name": "Merlan Trompette", "name:oc": "Morlan - Trompeta", "public_transport": "platform", "shelter": "no", "source:name:oc": "ieo-bdtopoc", "tactile_paving": "yes", "wheelchair": "no"}}, {"type": "node", "id": 622302199, "lat": 43.3323035, "lon": 5.4067805, "tags": {"bench": "no", "bus": "yes", "highway": "bus_stop", "name": "Merlan Trompette", "name:oc": "Morlan - Trompeta", "public_transport": "platform", "shelter": "no", "source:name:oc": "ieo-bdtopoc", "tactile_paving": "yes", "wheelchair": "no"}}, {"type": "node", "id": 622302206, "lat": 43.3343273, "lon": 5.4075597, "tags": {"bench": "yes", "bus": "yes", "highway": "bus_stop", "name": "Merlan Verdon", "name:oc": "Morlan - Verdon", "public_transport": "platform", "shelter": "yes", "source:name:oc": "ieo-bdtopoc", "tactile_paving": "yes", "wheelchair": "no"}}, {"type": "node", "id": 622302207, "lat": 43.3337622, "lon": 5.407519, "tags": {"bench": "no", "bus": "yes", "highway": "bus_stop", "name": "Merlan Verdon", "name:oc": "Morlan - Verdon", "public_transport": "platform", "shelter": "no", "source:name:oc": "ieo-bdtopoc", "tactile_paving": "yes", "wheelchair": "no"}}, {"type": "node", "id": 622302212, "lat": 43.3360956, "lon": 5.4073725, "tags": {"bench": "no", "bus": "yes", "highway": "bus_stop", "name": "Merlan Brissac", "name:oc": "Morlan - Brissac", "public_transport": "platform", "shelter": "no", "source:name:oc": "ieo-bdtopoc", "wheelchair": "no"}}, {"type": "node", "id": 622302216, "lat": 43.3363955, "lon": 5.4071937, "tags": {"bench": "yes", "bus": "yes", "highway": "bus_stop", "name": "Merlan Brissac", "name:oc": "Morlan - Brissac", "public_transport": "platform", "shelter": "yes", "source:name:oc": "ieo-bdtopoc", "wheelchair": "no"}}, {"type": "node", "id": 622302226, "lat": 43.3382554, "lon": 5.4075036, "tags": {"bench": "no", "bus": "yes", "highway": "bus_stop", "name": "Merlan Village", "name:oc": "Morlan Vilatge", "public_transport": "platform", "shelter": "no", "source:name:oc": "ieo-bdtopoc", "wheelchair": "no"}}, {"type": "node", "id": 622302236, "lat": 43.3383561, "lon": 5.4076959, "tags": {"bench": "yes", "bus": "yes", "highway": "bus_stop", "name": "Merlan Village", "name:oc": "Morlan Vilatge", "public_transport": "platform", "shelter": "yes", "source:name:oc": "ieo-bdtopoc", "wheelchair": "no"}}, {"type": "node", "id": 622302250, "lat": 43.3415322, "lon": 5.4073458, "tags": {"bench": "yes", "bus": "yes", "highway": "bus_stop", "name": "Merlan Tourelle", "name:oc": "Morlan - Torreta", "public_transport": "platform", "shelter": "yes", "source:name:oc": "ieo-bdtopoc", "wheelchair": "no"}}, {"type": "node", "id": 622302252, "lat": 43.3418485, "lon": 5.4076787, "tags": {"bench": "no", "bus": "yes", "highway": "bus_stop", "name": "Merlan Tourelle", "name:oc": "Morlan - Torreta", "public_transport": "platform", "shelter": "no", "source:name:oc": "ieo-bdtopoc", "wheelchair": "no"}}, {"type": "node", "id": 622302278, "lat": 43.3451821, "lon": 5.4084962, "tags": {"bus": "yes", "name": "Merlan Paquerettes", "name:oc": "Merlon - Margaridetas", "public_transport": "stop_position", "source:name:oc": "ieo-bdtopoc"}}, {"type": "node", "id": 622302281, "lat": 43.3451573, "lon": 5.4084114, "tags": {"bench": "yes", "bus": "yes", "highway": "bus_stop", "name": "Merlan Paquerettes", "name:oc": "Merlon - Margaridetas", "public_transport": "platform", "shelter": "yes", "source:name:oc": "ieo-bdtopoc", "wheelchair": "no"}}, {"type": "node", "id": 622302282, "lat": 43.3454049, "lon": 5.4084549, "tags": {"bench": "no", "bus": "yes", "highway": "bus_stop", "name": "Merlan Paquerettes", "name:oc": "Merlon - Margaridetas", "public_transport": "platform", "shelter": "no", "source:name:oc": "ieo-bdtopoc", "wheelchair": "no"}}, {"type": "node", "id": 622302286, "lat": 43.3468975, "lon": 5.4080842, "tags": {"bench": "no", "bus": "yes", "highway": "bus_stop", "name": "Merlan Guynemer", "name:oc": "Merlon - Guynemer", "public_transport": "platform", "shelter": "no", "source:name:oc": "ieo-bdtopoc", "wheelchair": "no"}}, {"type": "node", "id": 622302287, "lat": 43.3466055, "lon": 5.4082066, "tags": {"bench": "no", "bus": "yes", "highway": "bus_stop", "name": "Merlan Guynemer", "name:oc": "Merlon - Guynemer", "public_transport": "platform", "shelter": "no", "source:name:oc": "ieo-bdtopoc", "wheelchair": "no"}}, {"type": "node", "id": 622302288, "lat": 43.3495659, "lon": 5.4075126, "tags": {"bench": "no", "bus": "yes", "highway": "bus_stop", "name": "Le Merlan", "name:oc": "Lo Morlan", "public_transport": "platform", "shelter": "no", "source:name:oc": "ieo-bdtopoc", "wheelchair": "no"}}, {"type": "node", "id": 639640959, "lat": 43.3406373, "lon": 5.4099793, "tags": {"bench": "yes", "bus": "yes", "description": "Ligne 32", "highway": "bus_stop", "name": "Saint-J\u00e9r\u00f4me IUT", "name:oc": "Sant Jir\u00f2ni - IUT", "public_transport": "platform", "shelter": "yes", "source:name:oc": "ieo-bdtopoc", "tactile_paving": "yes", "wheelchair": "yes"}}, {"type": "node", "id": 639640960, "lat": 43.3405206, "lon": 5.4098509, "tags": {"bench": "yes", "bus": "yes", "description": "Ligne B3A B3", "highway": "bus_stop", "name": "Saint-J\u00e9r\u00f4me IUT", "name:oc": "Sant Jir\u00f2ni - IUT", "public_transport": "platform", "shelter": "yes", "source:name:oc": "ieo-bdtopoc", "tactile_paving": "yes", "wheelchair": "yes"}}, {"type": "node", "id": 685088695, "lat": 43.3522607, "lon": 5.3759157}, {"type": "node", "id": 685088698, "lat": 43.352189, "lon": 5.3763701}, {"type": "node", "id": 763219552, "lat": 43.3218719, "lon": 5.3920662, "tags": {"bus": "yes", "name": "Villecroze Bougie", "name:oc": "Vilacrosa - Bogia", "public_transport": "stop_position"}}, {"type": "node", "id": 763219620, "lat": 43.3197574, "lon": 5.3920148, "tags": {"bus": "yes", "name": "Villecroze Marroniers", "name:oc": "Vilacrosa - Marroniers", "public_transport": "stop_position", "source:name:oc": "ieo-bdtopoc"}}, {"type": "node", "id": 773179405, "lat": 43.3462565, "lon": 5.3782571, "tags": {"bus": "yes", "name": "Saint-Joseph", "name:oc": "Sant Jos\u00e8p", "public_transport": "stop_position", "source:name:oc": "ieo-bdtopoc"}}, {"type": "node", "id": 806386696, "lat": 43.3341526, "lon": 5.3746313, "tags": {"bus": "yes", "name": "Gay Lussac", "name:oc": "Gai Lussac", "public_transport": "stop_position"}}, {"type": "node", "id": 832888800, "lat": 43.3392538, "lon": 5.3905271}, {"type": "node", "id": 832915348, "lat": 43.3394028, "lon": 5.3904145}, {"type": "node", "id": 832924771, "lat": 43.3393067, "lon": 5.3903832}, {"type": "node", "id": 832938202, "lat": 43.3394093, "lon": 5.3905363}, {"type": "node", "id": 833009779, "lat": 43.3392989, "lon": 5.3903254}, {"type": "node", "id": 833066516, "lat": 43.3392133, "lon": 5.3905117}, {"type": "node", "id": 833082408, "lat": 43.3392648, "lon": 5.3903105}, {"type": "node", "id": 833085370, "lat": 43.3392325, "lon": 5.3904741}, {"type": "node", "id": 833139487, "lat": 43.3394327, "lon": 5.3904259}, {"type": "node", "id": 833148571, "lat": 43.3392227, "lon": 5.3904704}, {"type": "node", "id": 833180359, "lat": 43.3392345, "lon": 5.3904646}, {"type": "node", "id": 833182589, "lat": 43.3392645, "lon": 5.390477}, {"type": "node", "id": 833183747, "lat": 43.3392869, "lon": 5.3903755}, {"type": "node", "id": 833186690, "lat": 43.3392251, "lon": 5.3904606}, {"type": "node", "id": 833189195, "lat": 43.3392839, "lon": 5.3904857}, {"type": "node", "id": 833204861, "lat": 43.3392535, "lon": 5.3903616}, {"type": "node", "id": 833207183, "lat": 43.3393798, "lon": 5.3905249}, {"type": "node", "id": 944870219, "lat": 43.3371756, "lon": 5.3851336, "tags": {"bus": "yes", "name": "MIN Gibbes", "name:oc": "MIN Gibas", "public_transport": "stop_position", "source:name:oc": "ieo-bdtopoc"}}, {"type": "node", "id": 944870287, "lat": 43.3310428, "lon": 5.3850751, "tags": {"bus": "yes", "name": "HLM Station", "name:oc": "HLM Estacion", "public_transport": "stop_position", "source:name:oc": "ieo-bdtopoc"}}, {"type": "node", "id": 944870443, "lat": 43.33851, "lon": 5.3824709, "tags": {"bus": "yes", "name": "MIN Arnavaux", "name:oc": "MIN Arnav\u00e8us", "public_transport": "stop_position", "source:name:oc": "ieo-bdtopoc"}}, {"type": "node", "id": 958255234, "lat": 43.3337001, "lon": 5.3958651, "tags": {"bus": "yes", "name": "Tir La Busserine", "name:oc": "Tir - La Busserina", "public_transport": "stop_position", "source:name:oc": "ieo-bdtopoc"}}, {"type": "node", "id": 958255487, "lat": 43.3306947, "lon": 5.3983163, "tags": {"bench": "no", "bin": "no", "bus": "yes", "highway": "bus_stop", "lit": "yes", "name": "Th\u00e9\u00e2tre du Merlan", "name:oc": "Teatre dau Morlan", "public_transport": "platform", "shelter": "yes", "tactile_paving": "yes", "wheelchair": "no"}}, {"type": "node", "id": 958255603, "lat": 43.3359793, "lon": 5.3982223, "tags": {"bus": "yes", "name": "Sainte-Marthe Busserine", "name:oc": "Santa Marta - Busserina", "public_transport": "stop_position", "source:name:oc": "ieo-bdtopoc"}}, {"type": "node", "id": 958255860, "lat": 43.3321695, "lon": 5.4034573, "tags": {"bus": "yes", "name": "Les Flamants Les Iris", "name:oc": "Lei Becaruts - Lei Glaujas", "public_transport": "stop_position", "source": "survey", "source:name:oc": "ieo-bdtopoc"}}, {"type": "node", "id": 1555676392, "lat": 43.3285338, "lon": 5.3994759, "tags": {"bus": "yes", "name": "Centre Commercial du Merlan", "name:oc": "Centre Comerciau Dau Morlan", "public_transport": "stop_position", "source": "survey", "source:name:oc": "ieo-bdtopoc"}}, {"type": "node", "id": 1555676395, "lat": 43.3289091, "lon": 5.4003358, "tags": {"bus": "yes", "name": "Centre Commercial du Merlan", "name:oc": "Centre Comerciau Dau Morlan", "public_transport": "stop_position", "source": "survey", "source:name:oc": "ieo-bdtopoc"}}, {"type": "node", "id": 1575435286, "lat": 43.3427569, "lon": 5.3997806, "tags": {"bus": "yes", "name": "Hauts de Sainte-Marthe", "name:oc": "Santa Marta Sobeirana", "public_transport": "stop_position", "source:name:oc": "ieo-bdtopoc"}}, {"type": "node", "id": 1719914532, "lat": 43.3301565, "lon": 5.3697679, "tags": {"bus": "yes", "name": "G\u00e8ze Bossy", "name:oc": "G\u00e8sa Bossy", "public_transport": "stop_position", "source:name:oc": "ieo-bdtopoc"}}, {"type": "node", "id": 1733149362, "lat": 43.335489, "lon": 5.3995394, "tags": {"bench": "no", "bus": "yes", "highway": "bus_stop", "name": "Ansaldi La Javie", "name:oc": "Ansaldi - La J\u00e0via", "public_transport": "platform", "shelter": "no", "source": "survey", "source:name:oc": "ieo-bdtopoc", "tactile_paving": "yes", "wheelchair": "yes"}}, {"type": "node", "id": 1733149370, "lat": 43.3323636, "lon": 5.3990369, "tags": {"bench": "no", "bus": "yes", "highway": "bus_stop", "name": "Raimu La Busserine", "name:oc": "Raimu - La Busserina", "public_transport": "platform", "shelter": "no", "wheelchair": "yes"}}, {"type": "node", "id": 1733149373, "lat": 43.3323763, "lon": 5.3989814, "tags": {"bus": "yes", "name": "Raimu La Busserine", "name:oc": "Raimu - La Busserina", "public_transport": "stop_position", "source": "survey"}}, {"type": "node", "id": 1733149408, "lat": 43.3256696, "lon": 5.3996893, "tags": {"bench": "no", "bus": "yes", "highway": "bus_stop", "name": "Champfleuri", "name:oc": "Campflorit", "public_transport": "platform", "shelter": "no", "source": "survey", "source:name:oc": "ieo-bdtopoc", "tactile_paving": "yes"}}, {"type": "node", "id": 1733149423, "lat": 43.3340458, "lon": 5.3988016, "tags": {"bus": "yes", "name": "Coll\u00e8ge Edouard Manet", "name:oc": "Coll\u00e8gi E. Manet", "public_transport": "stop_position", "source": "survey", "source:name:oc": "ieo-bdtopoc"}}, {"type": "node", "id": 1733149461, "lat": 43.3267944, "lon": 5.3962296, "tags": {"bus": "yes", "name": "Corot Monet", "name:oc": "Cor\u00f2t - Monet", "operator": "RTM", "public_transport": "stop_position", "source": "survey", "source:name:oc": "ieo-bdtopoc"}}, {"type": "node", "id": 1733149466, "lat": 43.3268362, "lon": 5.3963059, "tags": {"bench": "no", "bus": "yes", "highway": "bus_stop", "name": "Corot Monet", "name:oc": "Cor\u00f2t - Monet", "public_transport": "platform", "shelter": "no", "source": "survey", "source:name:oc": "ieo-bdtopoc"}}, {"type": "node", "id": 1733149513, "lat": 43.3331161, "lon": 5.4032722, "tags": {"bench": "no", "bus": "yes", "highway": "bus_stop", "name": "Les Flamants", "name:oc": "Lei Becaruts", "public_transport": "platform", "shelter": "no", "source": "survey", "source:name:oc": "ieo-bdtopoc"}}, {"type": "node", "id": 1733149555, "lat": 43.3277602, "lon": 5.3969012, "tags": {"bench": "yes", "bin": "yes", "bus": "yes", "highway": "bus_stop", "lit": "yes", "name": "M\u00e9rim\u00e9e Corot", "name:oc": "M\u00e9rim\u00e9e - Cor\u00f2t", "public_transport": "platform", "shelter": "yes", "source:name:oc": "ieo-bdtopoc", "tactile_paving": "no"}}, {"type": "node", "id": 1733149572, "lat": 43.3277995, "lon": 5.3968358, "tags": {"bus": "yes", "name": "M\u00e9rim\u00e9e Corot", "name:oc": "M\u00e9rim\u00e9e - Cor\u00f2t", "public_transport": "stop_position", "source": "survey", "source:name:oc": "ieo-bdtopoc"}}, {"type": "node", "id": 1733426561, "lat": 43.3327881, "lon": 5.4014647, "tags": {"bus": "yes", "name": "Braque Les Flamants", "name:oc": "Braque - Lei Becaruts", "public_transport": "stop_position", "source": "survey", "source:name:oc": "ieo-bdtopoc"}}, {"type": "node", "id": 1733426577, "lat": 43.3336578, "lon": 5.3987942, "tags": {"bus": "yes", "name": "Coll\u00e8ge Edouard Manet", "name:oc": "Coll\u00e8gi E. Manet", "public_transport": "stop_position", "source": "survey", "source:name:oc": "ieo-bdtopoc"}}, {"type": "node", "id": 1733426583, "lat": 43.3322279, "lon": 5.403447, "tags": {"bench": "yes", "bus": "yes", "highway": "bus_stop", "name": "Les Flamants Les Iris", "name:oc": "Lei Becaruts - Lei Glaujas", "public_transport": "platform", "shelter": "yes", "source:name:oc": "ieo-bdtopoc"}}, {"type": "node", "id": 1738186096, "lat": 43.3321085, "lon": 5.3987101, "tags": {"bus": "yes", "name": "Raimu La Busserine", "name:oc": "Raimu - La Busserina", "public_transport": "stop_position", "source": "survey"}}, {"type": "node", "id": 1738186098, "lat": 43.3253539, "lon": 5.4003708, "tags": {"bench": "yes", "bus": "yes", "highway": "bus_stop", "name": "Champfleuri", "name:oc": "Campflorit", "public_transport": "platform", "shelter": "yes", "source": "survey", "source:name:oc": "ieo-bdtopoc"}}, {"type": "node", "id": 1738186122, "lat": 43.3267541, "lon": 5.3961653, "tags": {"bench": "no", "bus": "yes", "highway": "bus_stop", "name": "Corot Monet", "name:oc": "Cor\u00f2t - Monet", "public_transport": "platform", "shelter": "no", "source": "survey", "source:name:oc": "ieo-bdtopoc"}}, {"type": "node", "id": 1738186126, "lat": 43.3278401, "lon": 5.3968005, "tags": {"bench": "yes", "bin": "yes", "bus": "yes", "check_date:shelter": "2024-09-26", "highway": "bus_stop", "lit": "yes", "name": "M\u00e9rim\u00e9e Corot", "name:oc": "M\u00e9rim\u00e9e - Cor\u00f2t", "public_transport": "platform", "shelter": "yes", "tactile_paving": "no"}}, {"type": "node", "id": 1738186142, "lat": 43.3305822, "lon": 5.3980935, "tags": {"bus": "yes", "name": "Th\u00e9\u00e2tre du Merlan", "name:oc": "Teatre dau Morlan", "public_transport": "stop_position", "source": "survey"}}, {"type": "node", "id": 1840057702, "lat": 43.3193835, "lon": 5.3900226, "tags": {"bench": "yes", "bus": "yes", "highway": "bus_stop", "lit": "yes", "name": "Sainte-Marthe Colonel", "name:oc": "Santa Marta - Coron\u00e8u", "public_transport": "platform", "shelter": "yes", "source:name:oc": "ieo-bdtopoc"}}, {"type": "node", "id": 1840057707, "lat": 43.3193881, "lon": 5.3901569, "tags": {"bench": "yes", "bus": "yes", "highway": "bus_stop", "name": "Sainte-Marthe Colonel", "name:oc": "Santa Marta - Coron\u00e8u", "public_transport": "platform", "shelter": "yes", "source:name:oc": "ieo-bdtopoc"}}, {"type": "node", "id": 1840057733, "lat": 43.321547, "lon": 5.3893938, "tags": {"bench": "yes", "bus": "yes", "highway": "bus_stop", "name": "Sainte-Marthe Bougie", "name:oc": "Santa Marta - Bogia", "public_transport": "platform", "shelter": "yes", "source:name:oc": "ieo-bdtopoc"}}, {"type": "node", "id": 1840057743, "lat": 43.3226842, "lon": 5.3894989, "tags": {"bench": "yes", "bus": "yes", "highway": "bus_stop", "name": "Sainte-Marthe Bougie", "name:oc": "Santa Marta - Bogia", "public_transport": "platform", "shelter": "yes", "source:name:oc": "ieo-bdtopoc"}}, {"type": "node", "id": 1840057748, "lat": 43.3218474, "lon": 5.3919941, "tags": {"bench": "yes", "bus": "yes", "highway": "bus_stop", "name": "Villecroze Bougie", "name:oc": "Vilacrosa - Bogia", "public_transport": "platform", "shelter": "yes"}}, {"type": "node", "id": 1840057753, "lat": 43.3225178, "lon": 5.3924239, "tags": {"bench": "no", "bus": "yes", "highway": "bus_stop", "name": "Villecroze Bougie", "name:oc": "Vilacrosa - Bogia", "public_transport": "platform", "shelter": "no"}}, {"type": "node", "id": 1840057763, "lat": 43.3197584, "lon": 5.3920784, "tags": {"bench": "no", "bus": "yes", "highway": "bus_stop", "name": "Villecroze Marroniers", "name:oc": "Vilacrosa - Marroniers", "public_transport": "platform", "shelter": "no", "source:name:oc": "ieo-bdtopoc"}}, {"type": "node", "id": 1840057775, "lat": 43.3197714, "lon": 5.3919523, "tags": {"bench": "yes", "bus": "yes", "highway": "bus_stop", "name": "Villecroze Marroniers", "name:oc": "Vilacrosa - Marroniers", "public_transport": "platform", "shelter": "yes", "source:name:oc": "ieo-bdtopoc"}}, {"type": "node", "id": 1842324454, "lat": 43.3172033, "lon": 5.3896303, "tags": {"bench": "yes", "bus": "yes", "highway": "bus_stop", "name": "5 Avenues Burel", "name:oc": "5 Avengudas - Burr\u00e8l", "public_transport": "platform", "shelter": "yes"}}, {"type": "node", "id": 1842324459, "lat": 43.3177631, "lon": 5.3901669, "tags": {"bench": "no", "bus": "yes", "highway": "bus_stop", "name": "5 Avenues Burel", "name:oc": "5 Avengudas - Burr\u00e8l", "public_transport": "platform", "shelter": "no"}}, {"type": "node", "id": 1842571221, "lat": 43.3234375, "lon": 5.3860378, "tags": {"bus": "yes", "name": "Coll\u00e8ge Clair Soleil", "name:oc": "Moretti - Rosiers", "public_transport": "stop_position", "source:name:oc": "ieo-bdtopoc"}}, {"type": "node", "id": 1842678645, "lat": 43.3256183, "lon": 5.3798457, "tags": {"bus": "yes", "name": "Cimeti\u00e8re du Canet", "name:oc": "Cement\u00e8ri Dau Canet", "public_transport": "stop_position", "source:name:oc": "ieo-bdtopoc"}}, {"type": "node", "id": 1842678650, "lat": 43.3255773, "lon": 5.3800898, "tags": {"bus": "yes", "name": "Cimeti\u00e8re du Canet", "name:oc": "Cement\u00e8ri Dau Canet", "public_transport": "stop_position", "source:name:oc": "ieo-bdtopoc"}}, {"type": "node", "id": 1842678656, "lat": 43.3242493, "lon": 5.383597, "tags": {"bus": "yes", "name": "Moretti Gibbes", "name:oc": "Moretti - Gibas", "public_transport": "stop_position", "source:name:oc": "ieo-bdtopoc"}}, {"type": "node", "id": 1850715981, "lat": 43.3237137, "lon": 5.3930689, "tags": {"bench": "no", "bus": "yes", "highway": "bus_stop", "name": "Monet Saint-Barth\u00e9l\u00e9my", "name:oc": "Monet - Sant Bartomieu", "public_transport": "platform", "shelter": "no", "source:name:oc": "ieo-bdtopoc"}}, {"type": "node", "id": 1850715986, "lat": 43.3238593, "lon": 5.3932579, "tags": {"bench": "no", "bus": "yes", "highway": "bus_stop", "name": "Monet Saint-Barth\u00e9l\u00e9my", "name:oc": "Monet - Sant Bartomieu", "public_transport": "platform", "shelter": "no", "source:name:oc": "ieo-bdtopoc"}}, {"type": "node", "id": 1971545295, "lat": 43.3170443, "lon": 5.390095, "tags": {"bench": "no", "bus": "yes", "highway": "bus_stop", "name": "5 Avenues Burel", "name:oc": "5 Avengudas - Burr\u00e8l", "public_transport": "platform", "shelter": "no"}}, {"type": "node", "id": 1971545305, "lat": 43.317049, "lon": 5.3900136, "tags": {"bus": "yes", "name": "5 Avenues Burel", "name:oc": "5 Avengudas - Burr\u00e8l", "public_transport": "stop_position"}}, {"type": "node", "id": 1971545335, "lat": 43.3170511, "lon": 5.3896419, "tags": {"bus": "yes", "name": "5 Avenues Burel", "name:oc": "5 Avengudas - Burr\u00e8l", "public_transport": "stop_position"}}, {"type": "node", "id": 1971545344, "lat": 43.3170772, "lon": 5.3895641, "tags": {"bench": "no", "bus": "yes", "highway": "bus_stop", "name": "5 Avenues Burel", "name:oc": "5 Avengudas - Burr\u00e8l", "public_transport": "platform", "shelter": "no"}}, {"type": "node", "id": 1971545354, "lat": 43.3171739, "lon": 5.3897336, "tags": {"bus": "yes", "name": "5 Avenues Burel", "name:oc": "5 Avengudas - Burr\u00e8l", "public_transport": "stop_position"}}, {"type": "node", "id": 1971545364, "lat": 43.3177772, "lon": 5.39012, "tags": {"bus": "yes", "name": "5 Avenues Burel", "name:oc": "5 Avengudas - Burr\u00e8l", "public_transport": "stop_position"}}, {"type": "node", "id": 1973623129, "lat": 43.328233, "lon": 5.3877609, "tags": {"bus": "yes", "name": "Bertrandon", "name:oc": "Bertrandon", "public_transport": "stop_position"}}, {"type": "node", "id": 1973623130, "lat": 43.3282361, "lon": 5.3878176, "tags": {"bench": "no", "bus": "yes", "highway": "bus_stop", "name": "Bertrandon", "name:oc": "Bertrandon", "public_transport": "platform", "shelter": "no", "wheelchair": "no"}}, {"type": "node", "id": 1973623141, "lat": 43.3290085, "lon": 5.3877857, "tags": {"bench": "yes", "bus": "yes", "highway": "bus_stop", "name": "Bertrandon", "name:oc": "Bertrandon", "public_transport": "platform", "shelter": "yes", "wheelchair": "no"}}, {"type": "node", "id": 1973623143, "lat": 43.3155001, "lon": 5.3883783, "tags": {"bus": "yes", "name": "Burel Plombi\u00e8res", "name:oc": "Bur\u00e8l - Plomb\u00e8ras", "public_transport": "stop_position", "source:name:oc": "ieo-bdtopoc"}}, {"type": "node", "id": 1973623144, "lat": 43.3155264, "lon": 5.3883136, "tags": {"bench": "no", "bus": "yes", "highway": "bus_stop", "name": "Burel Plombi\u00e8res", "name:oc": "Bur\u00e8l - Plomb\u00e8ras", "public_transport": "platform", "shelter": "no", "source:name:oc": "ieo-bdtopoc"}}, {"type": "node", "id": 1973623145, "lat": 43.3317858, "lon": 5.3919439, "tags": {"bench": "no", "bus": "yes", "highway": "bus_stop", "name": "Cade Mouton", "name:oc": "Cade - Moton", "public_transport": "platform", "shelter": "no", "source:name:oc": "ieo-bdtopoc"}}, {"type": "node", "id": 1973623162, "lat": 43.33189, "lon": 5.3920259, "tags": {"bench": "no", "bus": "yes", "highway": "bus_stop", "name": "Cade Mouton", "name:oc": "Cade - Moton", "public_transport": "platform", "shelter": "no", "source:name:oc": "ieo-bdtopoc"}}, {"type": "node", "id": 1973623171, "lat": 43.333757, "lon": 5.3958121, "tags": {"bench": "yes", "bus": "yes", "highway": "bus_stop", "name": "Tir La Busserine", "name:oc": "Tir - La Busserina", "public_transport": "platform", "shelter": "yes", "source:name:oc": "ieo-bdtopoc", "tactile_paving": "yes", "wheelchair": "yes"}}, {"type": "node", "id": 1973623172, "lat": 43.3331619, "lon": 5.398437, "tags": {"bench": "no", "bus": "yes", "highway": "bus_stop", "name": "Tir Le Mail", "name:oc": "Tir - Lo Mail", "public_transport": "platform", "shelter": "no"}}, {"type": "node", "id": 1973623176, "lat": 43.3332084, "lon": 5.3981637, "tags": {"bus": "yes", "name": "Tir Le Mail", "name:oc": "Tir - Lo Mail", "public_transport": "stop_position"}}, {"type": "node", "id": 1973623179, "lat": 43.33327, "lon": 5.398101, "tags": {"bench": "yes", "bus": "yes", "highway": "bus_stop", "name": "Tir Le Mail", "name:oc": "Tir - Lo Mail", "public_transport": "platform", "shelter": "yes", "source:name:oc": "ieo-bdtopoc"}}, {"type": "node", "id": 1973623195, "lat": 43.3247813, "lon": 5.3883122, "tags": {"bench": "yes", "bus": "yes", "highway": "bus_stop", "name": "La Marine", "name:oc": "La Marina", "public_transport": "platform", "shelter": "yes", "wheelchair": "yes"}}, {"type": "node", "id": 1973623196, "lat": 43.3248397, "lon": 5.3883549, "tags": {"bus": "yes", "name": "La Marine", "name:oc": "La Marina", "public_transport": "stop_position"}}, {"type": "node", "id": 1973623197, "lat": 43.3254026, "lon": 5.3881569, "tags": {"bus": "yes", "name": "La Marine", "name:oc": "La Marina", "public_transport": "stop_position"}}, {"type": "node", "id": 1973623199, "lat": 43.325421, "lon": 5.3882329, "tags": {"bench": "yes", "bus": "yes", "highway": "bus_stop", "name": "La Marine", "name:oc": "La Marina", "public_transport": "platform", "shelter": "yes", "wheelchair": "yes"}}, {"type": "node", "id": 1973623200, "lat": 43.3267673, "lon": 5.3953009, "tags": {"bench": "no", "bus": "yes", "highway": "bus_stop", "name": "Monet Florida", "name:oc": "Monet - Florida", "public_transport": "platform", "shelter": "no", "source:name:oc": "ieo-bdtopoc"}}, {"type": "node", "id": 1973623202, "lat": 43.3268862, "lon": 5.3952026, "tags": {"bench": "yes", "bus": "yes", "highway": "bus_stop", "name": "Monet Florida", "name:oc": "Monet - Florida", "public_transport": "platform", "shelter": "yes", "source:name:oc": "ieo-bdtopoc"}}, {"type": "node", "id": 1973623203, "lat": 43.324986, "lon": 5.3938583, "tags": {"bus": "yes", "name": "Monet Lavandins", "name:oc": "Monet Lavandins", "public_transport": "stop_position", "source:name:oc": "ieo-bdtopoc"}}, {"type": "node", "id": 1973623207, "lat": 43.3249985, "lon": 5.3938091, "tags": {"bench": "no", "bus": "yes", "highway": "bus_stop", "name": "Monet Lavandins", "name:oc": "Monet Lavandins", "public_transport": "platform", "shelter": "no", "source:name:oc": "ieo-bdtopoc"}}, {"type": "node", "id": 1973623212, "lat": 43.3255566, "lon": 5.3941902, "tags": {"bench": "no", "bus": "yes", "highway": "bus_stop", "name": "Monet Lavandins", "name:oc": "Monet Lavandins", "public_transport": "platform", "shelter": "no", "source:name:oc": "ieo-bdtopoc"}}, {"type": "node", "id": 1973623216, "lat": 43.3255667, "lon": 5.3941542, "tags": {"bus": "yes", "name": "Monet Lavandins", "name:oc": "Monet Lavandins", "public_transport": "stop_position", "source:name:oc": "ieo-bdtopoc"}}, {"type": "node", "id": 1973623224, "lat": 43.3236675, "lon": 5.3931084, "tags": {"bus": "yes", "name": "Monet Saint-Barth\u00e9l\u00e9my", "name:oc": "Monet - Sant Bartomieu", "public_transport": "stop_position", "source:name:oc": "ieo-bdtopoc"}}, {"type": "node", "id": 1973623229, "lat": 43.3238676, "lon": 5.3932236, "tags": {"bus": "yes", "name": "Monet Saint-Barth\u00e9l\u00e9my", "name:oc": "Monet - Sant Bartomieu", "public_transport": "stop_position", "source:name:oc": "ieo-bdtopoc"}}, {"type": "node", "id": 1973623233, "lat": 43.31934, "lon": 5.39011, "tags": {"bus": "yes", "name": "Sainte-Marthe Colonel", "name:oc": "Santa Marta - Coron\u00e8u", "public_transport": "stop_position", "source:name:oc": "ieo-bdtopoc"}}, {"type": "node", "id": 1973623235, "lat": 43.3312065, "lon": 5.3890633, "tags": {"bench": "yes", "bus": "yes", "highway": "bus_stop", "name": "Sainte-Marthe Le Camp", "name:oc": "Santa Marta - Camp", "public_transport": "platform", "shelter": "yes", "source:name:oc": "ieo-bdtopoc"}}, {"type": "node", "id": 1973623236, "lat": 43.3312044, "lon": 5.3891555, "tags": {"bus": "yes", "name": "Sainte-Marthe Le Camp", "name:oc": "Santa Marta - Camp", "public_transport": "stop_position", "source:name:oc": "ieo-bdtopoc"}}, {"type": "node", "id": 1973623237, "lat": 43.3313323, "lon": 5.3893083, "tags": {"bench": "yes", "bus": "yes", "highway": "bus_stop", "name": "Sainte-Marthe Le Camp", "name:oc": "Santa Marta - Camp", "public_transport": "platform", "shelter": "yes", "source:name:oc": "ieo-bdtopoc", "tactile_paving": "yes", "wheelchair": "yes"}}, {"type": "node", "id": 1973623238, "lat": 43.3225057, "lon": 5.3923462, "tags": {"bus": "yes", "name": "Villecroze Bougie", "name:oc": "Vilacrosa - Bogia", "public_transport": "stop_position"}}, {"type": "node", "id": 2074576832, "lat": 43.3405235, "lon": 5.4099126, "tags": {"bus": "yes", "name": "Saint-J\u00e9r\u00f4me IUT", "name:oc": "Sant Gir\u00f2ni - IUT", "operator": "Ville de Marseille", "operator:wikidata": "Q3278475", "public_transport": "stop_position"}}, {"type": "node", "id": 2145626985, "lat": 43.3366953, "lon": 5.3920701, "tags": {"bus": "yes", "name": "Sainte-Marthe Peupliers", "name:oc": "Santa Marta - Pibolas", "public_transport": "stop_position", "source:name:oc": "ieo-bdtopoc"}}, {"type": "node", "id": 2162467812, "lat": 43.3561371, "lon": 5.410287, "tags": {"bench": "no", "bus": "yes", "highway": "bus_stop", "lit": "yes", "name": "Lissandre \u00c9coles", "name:oc": "Lei Sambras - Esc\u00f2las", "public_transport": "platform", "shelter": "no", "source": "survey", "source:name:oc": "ieo-bdtopoc"}}, {"type": "node", "id": 2162467813, "lat": 43.3560486, "lon": 5.4101816, "tags": {"bench": "yes", "bus": "yes", "highway": "bus_stop", "lit": "yes", "name": "Lissandre \u00c9coles", "name:oc": "Lei Sambras - Esc\u00f2las", "public_transport": "platform", "shelter": "yes", "source": "survey", "source:name:oc": "ieo-bdtopoc"}}, {"type": "node", "id": 2162467814, "lat": 43.3564008, "lon": 5.4133496, "tags": {"bench": "no", "bus": "yes", "highway": "bus_stop", "name": "Lissandre", "name:oc": "Lei Sambras", "public_transport": "platform", "shelter": "no", "source": "survey", "source:name:oc": "ieo-bdtopoc"}}, {"type": "node", "id": 2203619482, "lat": 43.3330054, "lon": 5.3680083, "tags": {"bench": "no", "bin": "yes", "bus": "yes", "highway": "bus_stop", "lit": "no", "name": "CFA Corot", "name:oc": "Aigas Ladas - Cor\u00f2t", "public_transport": "platform", "shelter": "no", "source:name:oc": "ieo-bdtopoc", "tactile_paving": "yes", "wheelchair": "yes"}}, {"type": "node", "id": 2203619491, "lat": 43.3373298, "lon": 5.3671634, "tags": {"bench": "yes", "bin": "no", "bus": "yes", "highway": "bus_stop", "lit": "no", "name": "La Visitation", "name:oc": "La Visitacion", "public_transport": "platform", "shelter": "yes", "source:name:oc": "ieo-bdtopoc", "tactile_paving": "no", "wheelchair": "no"}}, {"type": "node", "id": 2203619492, "lat": 43.3377139, "lon": 5.3671364, "tags": {"bench": "yes", "bin": "no", "bus": "yes", "highway": "bus_stop", "lit": "no", "name": "La Visitation", "name:oc": "La Visitacion", "public_transport": "platform", "shelter": "yes", "source:name:oc": "ieo-bdtopoc", "tactile_paving": "no", "wheelchair": "no"}}, {"type": "node", "id": 2208716609, "lat": 43.320791, "lon": 5.3715521, "tags": {"bench": "yes", "bin": "yes", "bus": "yes", "description": "Arr\u00eat de descente", "highway": "bus_stop", "name": "M\u00e9tro Bougainville", "name:oc": "M\u00e8tro Bougainville", "passenger_information_display": "yes", "public_transport": "platform", "shelter": "yes", "source:name:oc": "ieo-bdtopoc", "tactile_paving": "yes"}}, {"type": "node", "id": 2208716618, "lat": 43.3214344, "lon": 5.3712912, "tags": {"bench": "yes", "bin": "yes", "bus": "yes", "highway": "bus_stop", "lit": "yes", "name": "M\u00e9tro Bougainville", "name:oc": "M\u00e8tro Bougainville", "passenger_information_display": "yes", "public_transport": "platform", "shelter": "yes", "source:name:oc": "ieo-bdtopoc", "tactile_paving": "yes", "wheelchair": "yes"}}, {"type": "node", "id": 2211656634, "lat": 43.3207908, "lon": 5.3737263, "tags": {"bench": "no", "bin": "no", "bus": "yes", "highway": "bus_stop", "lit": "no", "name": "De Lesseps Casanova", "name:oc": "De Lesseps - Casanova", "public_transport": "platform", "shelter": "no", "source": "opendata.regionpaca.fr", "source:name:oc": "ieo-bdtopoc", "tactile_paving": "no", "wheelchair": "no"}}, {"type": "node", "id": 2272852444, "lat": 43.3459392, "lon": 5.3801749, "tags": {"bus": "yes", "name": "Coxe Mairie 13-14", "name:oc": "C\u00f2xe - Comuna 13 e 14", "public_transport": "stop_position", "source:name:oc": "ieo-bdtopoc"}}, {"type": "node", "id": 2272852450, "lat": 43.3455117, "lon": 5.3821268, "tags": {"bus": "yes", "name": "Coxe Massenet", "name:oc": "C\u00f2xe - Massenet", "public_transport": "stop_position", "source:name:oc": "ieo-bdtopoc"}}, {"type": "node", "id": 2272852481, "lat": 43.3483696, "lon": 5.3760493, "tags": {"bus": "yes", "name": "Saint-Joseph Les Lions", "name:oc": "Sant Jos\u00e8p - Lei Leons", "public_transport": "stop_position", "source:name:oc": "ieo-bdtopoc"}}, {"type": "node", "id": 2272852494, "lat": 43.3471267, "lon": 5.3787937, "tags": {"bus": "yes", "name": "Saint-Joseph", "name:oc": "Sant Jos\u00e8p", "public_transport": "stop_position", "source:name:oc": "ieo-bdtopoc"}}, {"type": "node", "id": 2272895879, "lat": 43.3363433, "lon": 5.3921139, "tags": {"bus": "yes", "name": "Sainte-Marthe Peupliers", "name:oc": "Santa Marta - Pibolas", "public_transport": "stop_position", "source:name:oc": "ieo-bdtopoc"}}, {"type": "node", "id": 2272895889, "lat": 43.3390756, "lon": 5.392037, "tags": {"bus": "yes", "name": "Sainte-Marthe", "name:oc": "Santa Marta", "public_transport": "stop_position", "source:name:oc": "ieo-bdtopoc"}}, {"type": "node", "id": 2272895894, "lat": 43.3392723, "lon": 5.3916953, "tags": {"bus": "yes", "name": "Sainte-Marthe", "name:oc": "Santa Marta", "public_transport": "stop_position", "source:name:oc": "ieo-bdtopoc"}}, {"type": "node", "id": 2272895898, "lat": 43.3387124, "lon": 5.3913942, "tags": {"bus": "yes", "name": "Sainte-Marthe", "name:oc": "Santa Marta", "public_transport": "stop_position", "source:name:oc": "ieo-bdtopoc"}}, {"type": "node", "id": 2273510789, "lat": 43.3328602, "lon": 5.3902513, "tags": {"bus": "yes", "name": "Sainte-Marthe Jourdan", "name:oc": "Santa Marta - Jordan", "public_transport": "stop_position", "source:name:oc": "ieo-bdtopoc"}}, {"type": "node", "id": 2273510790, "lat": 43.3338369, "lon": 5.3908452, "tags": {"bus": "yes", "name": "Sainte-Marthe Jourdan", "name:oc": "Santa Marta - Jordan", "public_transport": "stop_position", "source:name:oc": "ieo-bdtopoc"}}, {"type": "node", "id": 2273510791, "lat": 43.3347946, "lon": 5.391425, "tags": {"bus": "yes", "name": "Sainte-Marthe Vert Bois", "name:oc": "Santa Marta - Bosc V\u00e8rd", "public_transport": "stop_position", "source:name:oc": "ieo-bdtopoc"}}, {"type": "node", "id": 2274872088, "lat": 43.3229316, "lon": 5.3743283, "tags": {"bench": "yes", "bin": "no", "bus": "yes", "highway": "bus_stop", "lit": "no", "name": "Casanova Barb\u00e8s", "name:oc": "Casan\u00f2va - Barb\u00e8s", "public_transport": "platform", "shelter": "yes", "source:name:oc": "ieo-bdtopoc", "tactile_paving": "no", "wheelchair": "no"}}, {"type": "node", "id": 2274872100, "lat": 43.3234256, "lon": 5.37416, "tags": {"bench": "no", "bin": "no", "bus": "yes", "highway": "bus_stop", "lit": "no", "name": "Casanova Barb\u00e8s", "name:oc": "Casan\u00f2va - Barb\u00e8s", "public_transport": "platform", "shelter": "no", "source:name:oc": "ieo-bdtopoc", "tactile_paving": "no", "wheelchair": "no"}}, {"type": "node", "id": 2274872113, "lat": 43.3218846, "lon": 5.3747609, "tags": {"bench": "no", "bin": "no", "bus": "yes", "highway": "bus_stop", "lit": "no", "name": "Casanova De Lesseps", "name:oc": "Casanova - De Lesseps", "public_transport": "platform", "shelter": "yes", "source:name:oc": "ieo-bdtopoc", "tactile_paving": "no", "wheelchair": "no"}}, {"type": "node", "id": 2274872114, "lat": 43.3254606, "lon": 5.3740429, "tags": {"bench": "yes", "bin": "no", "bus": "yes", "highway": "bus_stop", "lit": "no", "name": "Casanova \u00c9tats-Unis", "name:oc": "Casan\u00f2va - Estats Units", "public_transport": "platform", "shelter": "no", "tactile_paving": "no", "wheelchair": "no"}}, {"type": "node", "id": 2274872115, "lat": 43.3255317, "lon": 5.3742038, "tags": {"bench": "yes", "bin": "no", "bus": "yes", "highway": "bus_stop", "lit": "no", "name": "Casanova \u00c9tats-Unis", "name:oc": "Casan\u00f2va - Estats Units", "public_transport": "platform", "shelter": "no", "tactile_paving": "no", "wheelchair": "no"}}, {"type": "node", "id": 2274872117, "lat": 43.3263079, "lon": 5.375286, "tags": {"bench": "yes", "bus": "yes", "highway": "bus_stop", "name": "Place des \u00c9tats-Unis", "name:oc": "Pla\u00e7a deis Estats Units", "public_transport": "platform", "shelter": "yes", "wheelchair": "yes"}}, {"type": "node", "id": 2274872118, "lat": 43.3263248, "lon": 5.3757502, "tags": {"bench": "no", "bus": "yes", "highway": "bus_stop", "name": "Place des \u00c9tats-Unis", "name:oc": "Pla\u00e7a deis Estats Units", "public_transport": "platform", "shelter": "no", "wheelchair": "yes"}}, {"type": "node", "id": 2276881375, "lat": 43.3180915, "lon": 5.3804402, "tags": {"bench": "no", "bin": "no", "bus": "yes", "highway": "bus_stop", "lit": "no", "name": "Plombi\u00e8res Battala", "name:oc": "Plomb\u00e8ras - Battala", "public_transport": "platform", "shelter": "no", "source": "opendata.regionpaca.fr", "source:name:oc": "ieo-bdtopoc", "tactile_paving": "yes", "wheelchair": "yes"}}, {"type": "node", "id": 2276901857, "lat": 43.3159605, "lon": 5.3843866, "tags": {"bench": "no", "bus": "yes", "highway": "bus_stop", "name": "Plombi\u00e8res Arnal", "name:oc": "Plomb\u00e8ras - Arnal", "public_transport": "platform", "shelter": "no", "source:name:oc": "ieo-bdtopoc", "wheelchair": "yes"}}, {"type": "node", "id": 2276901859, "lat": 43.3163647, "lon": 5.3836013, "tags": {"bench": "no", "bus": "yes", "highway": "bus_stop", "name": "Plombi\u00e8res Arnal", "name:oc": "Plomb\u00e8ras - Arnal", "public_transport": "platform", "shelter": "no", "source": "opendata.regionpaca.fr", "source:name:oc": "ieo-bdtopoc", "tactile_paving": "yes", "wheelchair": "yes"}}, {"type": "node", "id": 2510212030, "lat": 43.331195, "lon": 5.3931697, "tags": {"SNCF:stop_name": "Picon-Busserine.", "level": "0", "local_ref": "1", "name": "Picon-Busserine", "name:oc": "Picon - Busserina", "operator": "SNCF Gares & Connexions", "operator:wikidata": "Q3098278", "public_transport": "stop_position", "railway": "stop", "source:name:oc": "ieo-bdtopoc", "train": "yes", "uic_ref": "8775929", "wheelchair": "yes", "wikidata": "Q2308570", "wikipedia": "fr:Gare de Picon-Busserine"}}, {"type": "node", "id": 2510212033, "lat": 43.3520292, "lon": 5.3770995, "tags": {"level": "0", "local_ref": "1", "name": "Saint-Joseph-le-Castellas", "name:oc": "Sant Jos\u00e8p - Lo Castel\u00e0s", "operator": "SNCF Gares & Connexions", "operator:wikidata": "Q3098278", "public_transport": "stop_position", "railway": "stop", "source:name:oc": "ieo-bdtopoc", "train": "yes", "uic_ref": "8775931", "wheelchair": "yes"}}, {"type": "node", "id": 2510212034, "lat": 43.3393054, "lon": 5.390696, "tags": {"level": "0", "local_ref": "1", "name": "Sainte-Marthe-en-Provence", "name:oc": "Santa Marta de Proven\u00e7a", "operator": "SNCF Gares & Connexions", "operator:wikidata": "Q3098278", "public_transport": "stop_position", "railway": "stop", "source:name:oc": "ieo-bdtopoc", "train": "yes", "wheelchair": "yes"}}, {"type": "node", "id": 2510212085, "lat": 43.3390209, "lon": 5.3916095}, {"type": "node", "id": 2510212093, "lat": 43.3390995, "lon": 5.3913423}, {"type": "node", "id": 2510212096, "lat": 43.3390828, "lon": 5.3916438}, {"type": "node", "id": 2510212104, "lat": 43.3391322, "lon": 5.3912157}, {"type": "node", "id": 2510212115, "lat": 43.3391763, "lon": 5.3906495}, {"type": "node", "id": 2510212119, "lat": 43.3391778, "lon": 5.3910335}, {"type": "node", "id": 2510212127, "lat": 43.3391989, "lon": 5.3912483}, {"type": "node", "id": 2510212129, "lat": 43.3392052, "lon": 5.3905187}, {"type": "node", "id": 2510212135, "lat": 43.3392055, "lon": 5.3909059}, {"type": "node", "id": 2510212137, "lat": 43.3392053, "lon": 5.3906889}, {"type": "node", "id": 2510212139, "lat": 43.3392274, "lon": 5.391127}, {"type": "node", "id": 2510212141, "lat": 43.3392431, "lon": 5.3907384}, {"type": "node", "id": 2510212145, "lat": 43.3392489, "lon": 5.3910358}, {"type": "node", "id": 2510212149, "lat": 43.3392711, "lon": 5.3909382}, {"type": "node", "id": 2510212164, "lat": 43.3393104, "lon": 5.3907605}, {"type": "node", "id": 2510212172, "lat": 43.3392859, "lon": 5.3905373}, {"type": "node", "id": 2510212176, "lat": 43.3394865, "lon": 5.3899223}, {"type": "node", "id": 2510212180, "lat": 43.3394989, "lon": 5.3895963}, {"type": "node", "id": 2510212187, "lat": 43.3395612, "lon": 5.3896121}, {"type": "node", "id": 2510212317, "lat": 43.3518374, "lon": 5.3779278}, {"type": "node", "id": 2510212328, "lat": 43.3519121, "lon": 5.3779425}, {"type": "node", "id": 2510212340, "lat": 43.3519494, "lon": 5.3772296}, {"type": "node", "id": 2510212343, "lat": 43.351992, "lon": 5.3769701}, {"type": "node", "id": 2510212345, "lat": 43.3520293, "lon": 5.3772091}, {"type": "node", "id": 2510212352, "lat": 43.3520628, "lon": 5.3769999}, {"type": "node", "id": 2510212357, "lat": 43.3521696, "lon": 5.375878}, {"type": "node", "id": 2510212364, "lat": 43.3522385, "lon": 5.3759067}, {"type": "node", "id": 2510486611, "lat": 43.330423, "lon": 5.3927271}, {"type": "node", "id": 2510486612, "lat": 43.3304312, "lon": 5.3926215}, {"type": "node", "id": 2510486615, "lat": 43.3306504, "lon": 5.3928497}, {"type": "node", "id": 2510486616, "lat": 43.3306567, "lon": 5.3927428}, {"type": "node", "id": 2510486622, "lat": 43.3308395, "lon": 5.3928534}, {"type": "node", "id": 2510486625, "lat": 43.3308801, "lon": 5.3929892}, {"type": "node", "id": 2510486629, "lat": 43.3309184, "lon": 5.3929011}, {"type": "node", "id": 2510486642, "lat": 43.3312304, "lon": 5.3932234}, {"type": "node", "id": 2510486644, "lat": 43.3312842, "lon": 5.3931482}, {"type": "node", "id": 2510486645, "lat": 43.3315726, "lon": 5.3934508}, {"type": "node", "id": 2510486646, "lat": 43.3316169, "lon": 5.3933693}, {"type": "node", "id": 2510486647, "lat": 43.3318232, "lon": 5.3936131}, {"type": "node", "id": 2510486648, "lat": 43.3318551, "lon": 5.393523}, {"type": "node", "id": 2613401540, "lat": 43.3419426, "lon": 5.3865891, "tags": {"bus": "yes", "name": "La Simiane", "name:oc": "La Simiana", "public_transport": "stop_position", "source:name:oc": "ieo-bdtopoc"}}, {"type": "node", "id": 2613401541, "lat": 43.3406117, "lon": 5.3867462, "tags": {"bus": "yes", "name": "Nungesser", "name:oc": "Nungesser", "public_transport": "stop_position", "source:name:oc": "ieo-bdtopoc"}}, {"type": "node", "id": 2613401542, "lat": 43.3407589, "lon": 5.3867959, "tags": {"bus": "yes", "name": "Nungesser", "name:oc": "Nungesser", "public_transport": "stop_position", "source:name:oc": "ieo-bdtopoc"}}, {"type": "node", "id": 2613401543, "lat": 43.343904, "lon": 5.3847097, "tags": {"bus": "yes", "name": "Tour Sainte", "name:oc": "Torre Santa", "public_transport": "stop_position", "ref": "14", "source:name:oc": "ieo-bdtopoc"}}, {"type": "node", "id": 2613401544, "lat": 43.3439776, "lon": 5.3847402, "tags": {"bus": "yes", "name": "Tour Sainte", "name:oc": "Torre Santa", "public_transport": "stop_position", "source:name:oc": "ieo-bdtopoc"}}, {"type": "node", "id": 3538870530, "lat": 43.32024, "lon": 5.3714809, "tags": {"bus": "yes", "description": "Lignes 36 et 49 cartreize", "name": "Bougainville", "name:oc": "Bougainville", "public_transport": "stop_position"}}, {"type": "node", "id": 3538870531, "lat": 43.320263, "lon": 5.3713746, "tags": {"disused": "yes", "name": "M\u00e9tro Bougainville", "name:oc": "M\u00e8tro Bougainville", "network": "RTM", "operator": "R\u00e9gie des Transports M\u00e9tropolitains", "public_transport": "pole", "public_transport:information:waiting_time": "yes", "source:name:oc": "ieo-bdtopoc"}}, {"type": "node", "id": 3538870532, "lat": 43.3201897, "lon": 5.3712713, "tags": {"bus": "yes", "name": "M\u00e9tro Bougainville", "name:oc": "M\u00e8tro Bougainville", "public_transport": "stop_position", "source:name:oc": "ieo-bdtopoc"}}, {"type": "node", "id": 3540743756, "lat": 43.3207881, "lon": 5.3716605, "tags": {"bus": "yes", "name": "M\u00e9tro Bougainville", "name:oc": "M\u00e8tro Bougainville", "public_transport": "stop_position", "source:name:oc": "ieo-bdtopoc"}}, {"type": "node", "id": 3540743758, "lat": 43.3212246, "lon": 5.3714625, "tags": {"bus": "yes", "name": "M\u00e9tro Bougainville", "name:oc": "M\u00e8tro Bougainville", "public_transport": "stop_position", "source:name:oc": "ieo-bdtopoc"}}, {"type": "node", "id": 3540743802, "lat": 43.3214264, "lon": 5.3711895, "tags": {"bus": "yes", "name": "M\u00e9tro Bougainville", "name:oc": "M\u00e8tro Bougainville", "public_transport": "stop_position", "source:name:oc": "ieo-bdtopoc"}}, {"type": "node", "id": 3663059804, "lat": 43.3207365, "lon": 5.3737622, "tags": {"bus": "yes", "name": "De Lesseps Casanova", "name:oc": "De Lesseps - Casanova", "public_transport": "stop_position", "source:name:oc": "ieo-bdtopoc"}}, {"type": "node", "id": 3675023430, "lat": 43.3330063, "lon": 5.3679379, "tags": {"bus": "yes", "name": "CFA Corot", "name:oc": "Aigas Ladas - Cor\u00f2t", "public_transport": "stop_position", "source:name:oc": "ieo-bdtopoc"}}, {"type": "node", "id": 3675023444, "lat": 43.3373785, "lon": 5.3672018, "tags": {"bus": "yes", "name": "La Visitation", "name:oc": "La Visitacion", "public_transport": "stop_position", "source:name:oc": "ieo-bdtopoc"}}, {"type": "node", "id": 3675023445, "lat": 43.3376455, "lon": 5.3670724, "tags": {"bus": "yes", "name": "La Visitation", "name:oc": "La Visitacion", "public_transport": "stop_position", "source:name:oc": "ieo-bdtopoc"}}, {"type": "node", "id": 3690979840, "lat": 43.3404073, "lon": 5.4098578, "tags": {"bench": "yes", "bus": "yes", "description": "Ligne 32", "highway": "bus_stop", "name": "Saint-J\u00e9r\u00f4me IUT", "name:oc": "Sant Jir\u00f2ni - IUT", "public_transport": "platform", "shelter": "yes", "source:name:oc": "ieo-bdtopoc", "tactile_paving": "yes", "wheelchair": "yes"}}, {"type": "node", "id": 3690979841, "lat": 43.3405206, "lon": 5.4099823, "tags": {"bench": "yes", "bus": "yes", "description": "Ligne B3A B3", "highway": "bus_stop", "name": "Saint-J\u00e9r\u00f4me IUT", "name:oc": "Sant Jir\u00f2ni - IUT", "public_transport": "platform", "shelter": "yes", "source:name:oc": "ieo-bdtopoc", "tactile_paving": "yes", "wheelchair": "yes"}}, {"type": "node", "id": 3690979845, "lat": 43.3429434, "lon": 5.4103538, "tags": {"bus": "yes", "name": "Saint-J\u00e9r\u00f4me Parking Relais", "name:oc": "Sant Gir\u00f2ni - Aparcament relai", "public_transport": "stop_position", "source:name:oc": "ieo-bdtopoc"}}, {"type": "node", "id": 3691393122, "lat": 43.3413468, "lon": 5.4094355, "tags": {"bench": "no", "bus": "yes", "highway": "bus_stop", "name": "G\u00e9raniums", "name:oc": "Geranioms", "public_transport": "platform", "shelter": "no", "source:name:oc": "ieo-bdtopoc", "wheelchair": "no"}}, {"type": "node", "id": 3691393123, "lat": 43.341403, "lon": 5.409406, "tags": {"bus": "yes", "name": "G\u00e9raniums", "name:oc": "Geranioms", "public_transport": "stop_position"}}, {"type": "node", "id": 3698523874, "lat": 43.3158345, "lon": 5.3838819, "tags": {"bus": "yes", "name": "Plombi\u00e8res Arnal", "name:oc": "Plomb\u00e8ras - Arnal", "public_transport": "stop_position", "source:name:oc": "ieo-bdtopoc"}}, {"type": "node", "id": 3698523875, "lat": 43.3158204, "lon": 5.3838123, "tags": {"bench": "yes", "bin": "yes", "bus": "yes", "highway": "bus_stop", "name": "Plombi\u00e8res Arnal", "name:oc": "Plomb\u00e8ras - Arnal", "public_transport": "platform", "shelter": "yes", "source:name:oc": "ieo-bdtopoc"}}, {"type": "node", "id": 3702483254, "lat": 43.3527726, "lon": 5.4158279, "tags": {"bench": "no", "bus": "yes", "highway": "bus_stop", "name": "L'Escalet", "name:oc": "L'Escalet", "public_transport": "platform", "shelter": "no", "source": "survey", "source:name:oc": "ieo-bdtopoc", "tactile_paving": "yes"}}, {"type": "node", "id": 3702483255, "lat": 43.3529203, "lon": 5.4158981, "tags": {"bench": "no", "bus": "yes", "highway": "bus_stop", "name": "L'Escalet", "name:oc": "L'Escalet", "public_transport": "platform", "shelter": "no", "source": "survey", "source:name:oc": "ieo-bdtopoc", "tactile_paving": "yes"}}, {"type": "node", "id": 3703282338, "lat": 43.3494655, "lon": 5.4076156, "tags": {"bus": "yes", "name": "Le Merlan", "name:oc": "Lo Morlan", "public_transport": "stop_position", "source:name:oc": "ieo-bdtopoc"}}, {"type": "node", "id": 3703282339, "lat": 43.3494952, "lon": 5.4076604, "tags": {"bench": "no", "bus": "yes", "highway": "bus_stop", "name": "Le Merlan", "name:oc": "Lo Morlan", "public_transport": "platform", "shelter": "no", "source:name:oc": "ieo-bdtopoc", "wheelchair": "no"}}, {"type": "node", "id": 3703282340, "lat": 43.3469016, "lon": 5.4081487, "tags": {"bus": "yes", "name": "Merlan Guynemer", "name:oc": "Merlon - Guynemer", "public_transport": "stop_position", "source:name:oc": "ieo-bdtopoc"}}, {"type": "node", "id": 3703282342, "lat": 43.3453447, "lon": 5.4084095, "tags": {"bus": "yes", "name": "Merlan Paquerettes", "name:oc": "Merlon - Margaridetas", "public_transport": "stop_position", "source:name:oc": "ieo-bdtopoc"}}, {"type": "node", "id": 3703282343, "lat": 43.3418703, "lon": 5.4076261, "tags": {"bus": "yes", "name": "Merlan Tourelle", "name:oc": "Morlan - Torreta", "public_transport": "stop_position", "source:name:oc": "ieo-bdtopoc"}}, {"type": "node", "id": 3703282344, "lat": 43.3383017, "lon": 5.4075909, "tags": {"bus": "yes", "name": "Merlan Village", "name:oc": "Morlan Vilatge", "public_transport": "stop_position", "source:name:oc": "ieo-bdtopoc"}}, {"type": "node", "id": 3704471465, "lat": 43.3360653, "lon": 5.4073253, "tags": {"bus": "yes", "name": "Merlan Brissac", "name:oc": "Morlan - Brissac", "public_transport": "stop_position", "source:name:oc": "ieo-bdtopoc"}}, {"type": "node", "id": 3704471466, "lat": 43.3364548, "lon": 5.4072751, "tags": {"bus": "yes", "name": "Merlan Brissac", "name:oc": "Morlan - Brissac", "public_transport": "stop_position", "source:name:oc": "ieo-bdtopoc"}}, {"type": "node", "id": 3704471467, "lat": 43.3304099, "lon": 5.4044344, "tags": {"bus": "yes", "name": "Merlan Sainte-Marthe", "name:oc": "Morlan - Santa Marta", "public_transport": "stop_position", "source:name:oc": "ieo-bdtopoc"}}, {"type": "node", "id": 3704471468, "lat": 43.3305127, "lon": 5.4044279, "tags": {"bus": "yes", "name": "Merlan Sainte-Marthe", "name:oc": "Morlan - Santa Marta", "public_transport": "stop_position", "source:name:oc": "ieo-bdtopoc"}}, {"type": "node", "id": 3704471469, "lat": 43.3309491, "lon": 5.4042604, "tags": {"bus": "yes", "name": "Merlan Sainte-Marthe", "name:oc": "Morlan - Santa Marta", "public_transport": "stop_position", "source:name:oc": "ieo-bdtopoc"}}, {"type": "node", "id": 3704471470, "lat": 43.3310086, "lon": 5.4043217, "tags": {"bench": "yes", "bus": "yes", "description": "lignes 37 37S 38 B3A", "highway": "bus_stop", "name": "Merlan Sainte-Marthe", "name:oc": "Morlan - Santa Marta", "public_transport": "platform", "shelter": "yes", "source:name:oc": "ieo-bdtopoc"}}, {"type": "node", "id": 3704471471, "lat": 43.3322963, "lon": 5.4067285, "tags": {"bus": "yes", "name": "Merlan Trompette", "name:oc": "Morlan - Trompeta", "public_transport": "stop_position", "source:name:oc": "ieo-bdtopoc"}}, {"type": "node", "id": 3704471472, "lat": 43.3328043, "lon": 5.4069975, "tags": {"bus": "yes", "name": "Merlan Trompette", "name:oc": "Morlan - Trompeta", "public_transport": "stop_position", "source:name:oc": "ieo-bdtopoc"}}, {"type": "node", "id": 3704471473, "lat": 43.3338069, "lon": 5.4074816, "tags": {"bus": "yes", "name": "Merlan Verdon", "name:oc": "Morlan - Verdon", "public_transport": "stop_position", "source:name:oc": "ieo-bdtopoc"}}, {"type": "node", "id": 3704471474, "lat": 43.3343327, "lon": 5.4076338, "tags": {"bus": "yes", "name": "Merlan Verdon", "name:oc": "Morlan - Verdon", "public_transport": "stop_position", "source:name:oc": "ieo-bdtopoc"}}, {"type": "node", "id": 3719802748, "lat": 43.3556938, "lon": 5.4081772, "tags": {"bench": "yes", "bus": "yes", "highway": "bus_stop", "lit": "yes", "name": "La Batarelle", "name:oc": "La Batar\u00e8la", "public_transport": "platform", "shelter": "yes", "source": "survey", "source:name:oc": "ieo-bdtopoc"}}, {"type": "node", "id": 3719802749, "lat": 43.3557546, "lon": 5.4082191, "tags": {"bus": "yes", "name": "La Batarelle", "name:oc": "La Batar\u00e8la", "operator": "RTM", "public_transport": "stop_position", "source:name:oc": "ieo-bdtopoc"}}, {"type": "node", "id": 3719802750, "lat": 43.3560979, "lon": 5.4102352, "tags": {"bus": "yes", "name": "Lissandre \u00c9coles", "name:oc": "Lei Sambras - Esc\u00f2las", "operator": "RTM", "public_transport": "stop_position", "source:name:oc": "ieo-bdtopoc"}}, {"type": "node", "id": 3719802751, "lat": 43.3560846, "lon": 5.4147292, "tags": {"bus": "yes", "name": "Lissandre", "name:oc": "Lei Sambras", "public_transport": "stop_position", "source:name:oc": "ieo-bdtopoc"}}, {"type": "node", "id": 3719802752, "lat": 43.3560895, "lon": 5.4146725, "tags": {"bench": "yes", "bus": "yes", "highway": "bus_stop", "name": "Lissandre", "name:oc": "Lei Sambras", "public_transport": "platform", "shelter": "yes", "source": "survey", "source:name:oc": "ieo-bdtopoc"}}, {"type": "node", "id": 3719802753, "lat": 43.3563547, "lon": 5.4133799, "tags": {"bus": "yes", "name": "Lissandre", "name:oc": "Lei Sambras", "operator": "RTM", "public_transport": "stop_position", "source:name:oc": "ieo-bdtopoc"}}, {"type": "node", "id": 4127531314, "lat": 43.3163194, "lon": 5.3836274, "tags": {"bus": "yes", "name": "Plombi\u00e8res Arnal", "name:oc": "Plomb\u00e8ras - Arnal", "public_transport": "stop_position", "source:name:oc": "ieo-bdtopoc"}}, {"type": "node", "id": 4127531315, "lat": 43.3180747, "lon": 5.3804051, "tags": {"bus": "yes", "name": "Plombi\u00e8res Battala", "name:oc": "Plomb\u00e8ras - Battala", "public_transport": "stop_position", "source:name:oc": "ieo-bdtopoc"}}, {"type": "node", "id": 4200151207, "lat": 43.320371, "lon": 5.3713118, "tags": {"entrance": "yes", "level": "1", "name": "Bougainville", "name:oc": "Bougainville", "railway": "subway_entrance"}}, {"type": "node", "id": 4200151208, "lat": 43.3203906, "lon": 5.3716249, "tags": {"entrance": "yes", "level": "1", "name": "Bougainville", "name:oc": "Bougainville", "railway": "subway_entrance"}}, {"type": "node", "id": 4200151209, "lat": 43.3208404, "lon": 5.3714311, "tags": {"layer": "2", "level": "2", "name": "Bougainville", "name:oc": "Bougainville", "network": "RTM", "operator": "R\u00e9gie des Transports Marseillais", "public_transport": "stop_position", "railway": "stop", "station": "subway", "subway": "yes", "wheelchair": "no", "wikidata": "Q2921538", "wikipedia": "fr:Bougainville (m\u00e9tro de Marseille)"}}, {"type": "node", "id": 4200151212, "lat": 43.3208253, "lon": 5.3717395, "tags": {"bench": "no", "bin": "no", "bus": "yes", "description": "Arr\u00eat de descente", "highway": "bus_stop", "lit": "yes", "name": "M\u00e9tro Bougainville", "name:oc": "M\u00e8tro Bougainville", "public_transport": "platform", "shelter": "no", "source:name:oc": "ieo-bdtopoc", "tactile_paving": "no"}}, {"type": "node", "id": 4200151722, "lat": 43.3204514, "lon": 5.3713226}, {"type": "node", "id": 4200151723, "lat": 43.3204541, "lon": 5.3713572}, {"type": "node", "id": 4200151724, "lat": 43.3205232, "lon": 5.3713542}, {"type": "node", "id": 4200151725, "lat": 43.3205236, "lon": 5.3714886}, {"type": "node", "id": 4200151726, "lat": 43.3205249, "lon": 5.3715406}, {"type": "node", "id": 4200151727, "lat": 43.3205263, "lon": 5.3714981}, {"type": "node", "id": 4200151728, "lat": 43.3205295, "lon": 5.3713144}, {"type": "node", "id": 4200151729, "lat": 43.3205299, "lon": 5.3713268}, {"type": "node", "id": 4200151730, "lat": 43.3205305, "lon": 5.3714971}, {"type": "node", "id": 4200151731, "lat": 43.3205309, "lon": 5.3713375}, {"type": "node", "id": 4200151733, "lat": 43.3205345, "lon": 5.3715422}, {"type": "node", "id": 4200151734, "lat": 43.3205412, "lon": 5.3713357}, {"type": "node", "id": 4200151735, "lat": 43.3205434, "lon": 5.3713551}, {"type": "node", "id": 4200151736, "lat": 43.3205435, "lon": 5.3713452}, {"type": "node", "id": 4200151738, "lat": 43.3205619, "lon": 5.3715398}, {"type": "node", "id": 4200151739, "lat": 43.3205644, "lon": 5.3715641}, {"type": "node", "id": 4200151740, "lat": 43.3205658, "lon": 5.3715837}, {"type": "node", "id": 4200151741, "lat": 43.3206546, "lon": 5.3715302}, {"type": "node", "id": 4200151742, "lat": 43.3206552, "lon": 5.3715557}, {"type": "node", "id": 4200151743, "lat": 43.3206558, "lon": 5.3715775}, {"type": "node", "id": 4200151744, "lat": 43.3207574, "lon": 5.37133}, {"type": "node", "id": 4200151745, "lat": 43.3207594, "lon": 5.3715148}, {"type": "node", "id": 4200151756, "lat": 43.3211606, "lon": 5.3714135}, {"type": "node", "id": 4200151757, "lat": 43.3211644, "lon": 5.3714665}, {"type": "node", "id": 4200151827, "lat": 43.3204693, "lon": 5.371553}, {"type": "node", "id": 4200151828, "lat": 43.3204724, "lon": 5.3715935}, {"type": "node", "id": 4200151832, "lat": 43.3205168, "lon": 5.3714004}, {"type": "node", "id": 4200151833, "lat": 43.3205174, "lon": 5.3713585}, {"type": "node", "id": 4200151835, "lat": 43.3205198, "lon": 5.3713999}, {"type": "node", "id": 4200151836, "lat": 43.3205223, "lon": 5.3714085}, {"type": "node", "id": 4200151855, "lat": 43.3206635, "lon": 5.3712885}, {"type": "node", "id": 4200151856, "lat": 43.320664, "lon": 5.3713031}, {"type": "node", "id": 4200151857, "lat": 43.3206649, "lon": 5.3713253}, {"type": "node", "id": 4200151858, "lat": 43.3206654, "lon": 5.3713391}, {"type": "node", "id": 4200151861, "lat": 43.3206942, "lon": 5.3712851}, {"type": "node", "id": 4200151863, "lat": 43.3207043, "lon": 5.3715728}, {"type": "node", "id": 4200151871, "lat": 43.3211513, "lon": 5.3712838}, {"type": "node", "id": 4200151872, "lat": 43.3211553, "lon": 5.3713362}, {"type": "node", "id": 4216116116, "lat": 43.3393621, "lon": 5.3907588}, {"type": "node", "id": 4216116117, "lat": 43.3393689, "lon": 5.3907696}, {"type": "node", "id": 4216116118, "lat": 43.339387, "lon": 5.3905277}, {"type": "node", "id": 4216116119, "lat": 43.3394002, "lon": 5.3898746}, {"type": "node", "id": 4216116120, "lat": 43.3394114, "lon": 5.3904178}, {"type": "node", "id": 4216116121, "lat": 43.3394452, "lon": 5.3902633}, {"type": "node", "id": 4216116123, "lat": 43.339473, "lon": 5.3895812}, {"type": "node", "id": 4216126487, "lat": 43.3392164, "lon": 5.391264}, {"type": "node", "id": 4216126488, "lat": 43.3392261, "lon": 5.3912179}, {"type": "node", "id": 4216166947, "lat": 43.3318137, "lon": 5.3936398}, {"type": "node", "id": 4216166948, "lat": 43.3318671, "lon": 5.3934907}, {"type": "node", "id": 4216166963, "lat": 43.3395845, "lon": 5.3896289}, {"type": "node", "id": 4216167102, "lat": 43.3315433, "lon": 5.3932851}, {"type": "node", "id": 4216167104, "lat": 43.3315596, "lon": 5.3934832}, {"type": "node", "id": 4216167160, "lat": 43.3389955, "lon": 5.3915915}, {"type": "node", "id": 4216167164, "lat": 43.3391391, "lon": 5.3910614}, {"type": "node", "id": 4216167167, "lat": 43.3391027, "lon": 5.3916541}, {"type": "node", "id": 4216167170, "lat": 43.3391477, "lon": 5.3908663}, {"type": "node", "id": 4216167171, "lat": 43.3391838, "lon": 5.3909227}, {"type": "node", "id": 4216167174, "lat": 43.3391642, "lon": 5.3909155}, {"type": "node", "id": 4216167176, "lat": 43.3392106, "lon": 5.3906293, "tags": {"entrance": "main", "railway": "train_station_entrance", "width": "1.8"}}, {"type": "node", "id": 4216167177, "lat": 43.3391833, "lon": 5.3906807}, {"type": "node", "id": 4216167178, "lat": 43.3391719, "lon": 5.3908763}, {"type": "node", "id": 4216167609, "lat": 43.3386491, "lon": 5.3914008, "tags": {"bench": "no", "bus": "yes", "highway": "bus_stop", "level": "0", "lit": "no", "name": "Sainte-Marthe", "name:oc": "Santa Marta", "public_transport": "platform", "shelter": "no", "source:name:oc": "ieo-bdtopoc", "wheelchair": "yes"}}, {"type": "node", "id": 4216167610, "lat": 43.3387569, "lon": 5.3914108, "tags": {"bench": "yes", "bus": "yes", "highway": "bus_stop", "name": "Sainte-Marthe", "name:oc": "Santa Marta", "public_transport": "platform", "shelter": "yes", "source:name:oc": "ieo-bdtopoc", "wheelchair": "yes"}}, {"type": "node", "id": 4216167611, "lat": 43.3390408, "lon": 5.3920208, "tags": {"amenity": "shelter", "bench": "yes", "level": "0", "name": "Sainte-Marthe", "network": "RTM", "operator": "R\u00e9gie des Transports Marseillais", "shelter_type": "public_transport"}}, {"type": "node", "id": 4216167612, "lat": 43.3393251, "lon": 5.3917106, "tags": {"amenity": "shelter", "bench": "yes", "level": "0", "name": "Sainte-Marthe", "network": "RTM", "operator": "R\u00e9gie des Transports Marseillais", "shelter_type": "public_transport"}}, {"type": "node", "id": 4216167657, "lat": 43.3304183, "lon": 5.3927632}, {"type": "node", "id": 4216167658, "lat": 43.3304354, "lon": 5.3926024}, {"type": "node", "id": 4216167659, "lat": 43.3306205, "lon": 5.3926982}, {"type": "node", "id": 4216167660, "lat": 43.3306998, "lon": 5.3929075}, {"type": "node", "id": 4216167661, "lat": 43.3308474, "lon": 5.392827, "tags": {"entrance": "yes", "wheelchair": "yes", "width": "3.4"}}, {"type": "node", "id": 4216167662, "lat": 43.3309917, "lon": 5.3930934}, {"type": "node", "id": 4216167663, "lat": 43.331097, "lon": 5.3929837}, {"type": "node", "id": 4216167664, "lat": 43.3312228, "lon": 5.3932494, "tags": {"entrance": "main", "level": "0", "railway": "train_station_entrance", "wheelchair": "yes", "width": "1.8"}}, {"type": "node", "id": 4216168369, "lat": 43.3518132, "lon": 5.377921}, {"type": "node", "id": 4216168371, "lat": 43.3519307, "lon": 5.3779474}, {"type": "node", "id": 4216168372, "lat": 43.3519354, "lon": 5.3771599}, {"type": "node", "id": 4216168373, "lat": 43.3519689, "lon": 5.3769602}, {"type": "node", "id": 4216168374, "lat": 43.3520494, "lon": 5.3772159}, {"type": "node", "id": 4216168375, "lat": 43.3520835, "lon": 5.3770063}, {"type": "node", "id": 4216168376, "lat": 43.3521458, "lon": 5.3758712}, {"type": "node", "id": 4216168492, "lat": 43.3392889, "lon": 5.3909653}, {"type": "node", "id": 4216168493, "lat": 43.3392966, "lon": 5.3909261}, {"type": "node", "id": 4216168495, "lat": 43.3393382, "lon": 5.390942}, {"type": "node", "id": 4216168496, "lat": 43.3393374, "lon": 5.3907503}, {"type": "node", "id": 4225136934, "lat": 43.342342, "lon": 5.4056346, "tags": {"bus": "yes", "name": "Audisio Santa-Cruz", "name:oc": "Audisio - Santa Cruz", "public_transport": "stop_position", "source:name:oc": "ieo-bdtopoc"}}, {"type": "node", "id": 4232157074, "lat": 43.3355874, "lon": 5.3994302, "tags": {"bus": "yes", "name": "Ansaldi La Javie", "name:oc": "Ansaldi - La J\u00e0via", "operator": "RTM", "public_transport": "stop_position", "source:name:oc": "ieo-bdtopoc"}}, {"type": "node", "id": 4232157076, "lat": 43.3360116, "lon": 5.3977587, "tags": {"bus": "yes", "name": "La Margeray", "name:oc": "La Margerai", "public_transport": "stop_position"}}, {"type": "node", "id": 4241450861, "lat": 43.3403691, "lon": 5.4098803}, {"type": "node", "id": 4241450862, "lat": 43.3403752, "lon": 5.409968}, {"type": "node", "id": 4241450863, "lat": 43.3406681, "lon": 5.409865}, {"type": "node", "id": 4241450864, "lat": 43.3406698, "lon": 5.409952}, {"type": "node", "id": 4258542603, "lat": 43.3325131, "lon": 5.4019134, "tags": {"bench": "yes", "bus": "yes", "highway": "bus_stop", "name": "Braque Les Flamants", "name:oc": "Braque - Lei Becaruts", "public_transport": "platform", "shelter": "yes", "source:name:oc": "ieo-bdtopoc"}}, {"type": "node", "id": 4258542604, "lat": 43.3325609, "lon": 5.4019424, "tags": {"bus": "yes", "name": "Braque Les Flamants", "name:oc": "Braque - Lei Becaruts", "public_transport": "stop_position", "source": "survey"}}, {"type": "node", "id": 4258542605, "lat": 43.3321134, "lon": 5.4037177, "tags": {"bench": "no", "bus": "yes", "highway": "bus_stop", "name": "Les Flamants Les Iris", "name:oc": "Lei Becaruts - Lei Glaujas", "public_transport": "platform", "shelter": "no", "source:name:oc": "ieo-bdtopoc"}}, {"type": "node", "id": 4258542641, "lat": 43.3321415, "lon": 5.4037701, "tags": {"bus": "yes", "name": "Les Flamants Les Iris", "name:oc": "Lei Becaruts - Lei Glaujas", "public_transport": "stop_position", "source": "survey", "source:name:oc": "ieo-bdtopoc"}}, {"type": "node", "id": 4292841010, "lat": 43.3310305, "lon": 5.3746643, "tags": {"bench": "yes", "bin": "no", "bus": "yes", "highway": "bus_stop", "lit": "no", "name": "Canet Ambrosini", "name:oc": "Canet Ambrosini", "public_transport": "platform", "shelter": "yes", "tactile_paving": "no"}}, {"type": "node", "id": 4292841011, "lat": 43.3310987, "lon": 5.3747485, "tags": {"bus": "yes", "name": "Canet Ambrosini", "name:oc": "HLM Lo Canet", "public_transport": "stop_position"}}, {"type": "node", "id": 4292841013, "lat": 43.3262755, "lon": 5.3757601, "tags": {"bus": "yes", "name": "Place des \u00c9tats-Unis", "name:oc": "Pla\u00e7a deis Estats Units", "public_transport": "stop_position"}}, {"type": "node", "id": 4292841014, "lat": 43.3263576, "lon": 5.3752639, "tags": {"bus": "yes", "name": "Place des \u00c9tats-Unis", "name:oc": "Pla\u00e7a deis Estats Units", "public_transport": "stop_position"}}, {"type": "node", "id": 4292841015, "lat": 43.3269416, "lon": 5.3748111, "tags": {"bench": "yes", "bin": "no", "bus": "yes", "highway": "bus_stop", "lit": "no", "name": "Place des \u00c9tats-Unis", "name:oc": "Pla\u00e7a deis Estats Units", "public_transport": "platform", "shelter": "yes", "tactile_paving": "yes", "wheelchair": "yes"}}, {"type": "node", "id": 4292841016, "lat": 43.3269498, "lon": 5.374911, "tags": {"bus": "yes", "name": "Place des \u00c9tats-Unis", "name:oc": "Pla\u00e7a deis Estats Units", "public_transport": "stop_position"}}, {"type": "node", "id": 4292841189, "lat": 43.3229775, "lon": 5.3743817, "tags": {"bus": "yes", "name": "Casanova Barb\u00e8s", "name:oc": "Casan\u00f2va - Barb\u00e8s", "public_transport": "stop_position"}}, {"type": "node", "id": 4292841190, "lat": 43.3292978, "lon": 5.3748136, "tags": {"bench": "no", "bus": "yes", "highway": "bus_stop", "name": "Casanova Canet", "name:oc": "Casan\u00f2va - Canet", "network": "RTM", "network:wikidata": "Q3454986", "public_transport": "platform", "shelter": "no"}}, {"type": "node", "id": 4292841191, "lat": 43.3293858, "lon": 5.3748745, "tags": {"bus": "yes", "name": "Casanova Canet", "name:oc": "Casan\u00f2va - Canet", "public_transport": "stop_position", "source:name:oc": "ieo-bdtopoc"}}, {"type": "node", "id": 4292841192, "lat": 43.3291366, "lon": 5.3757597, "tags": {"bus": "yes", "name": "Casanova Canet", "name:oc": "Casan\u00f2va - Canet", "public_transport": "stop_position", "source:name:oc": "ieo-bdtopoc"}}, {"type": "node", "id": 4292841193, "lat": 43.3291554, "lon": 5.3758385, "tags": {"bench": "no", "bus": "yes", "highway": "bus_stop", "name": "Casanova Canet", "name:oc": "Casan\u00f2va - Canet", "public_transport": "platform", "shelter": "no", "source:name:oc": "ieo-bdtopoc"}}, {"type": "node", "id": 4292841194, "lat": 43.3303854, "lon": 5.3764255, "tags": {"bus": "yes", "name": "Casanova Larousse", "name:oc": "Casan\u00f2va - Larossa", "public_transport": "stop_position", "source:name:oc": "ieo-bdtopoc"}}, {"type": "node", "id": 4292841195, "lat": 43.330435, "lon": 5.3765201, "tags": {"bench": "no", "bin": "no", "bus": "yes", "highway": "bus_stop", "name": "Casanova Larousse", "name:oc": "Casan\u00f2va - Larossa", "public_transport": "platform", "shelter": "no", "source:name:oc": "ieo-bdtopoc", "tactile_paving": "no"}}, {"type": "node", "id": 4292841197, "lat": 43.3218156, "lon": 5.3746826, "tags": {"bus": "yes", "name": "Casanova De Lesseps", "name:oc": "Casanova - De Lesseps", "public_transport": "stop_position", "source:name:oc": "ieo-bdtopoc"}}, {"type": "node", "id": 4292841198, "lat": 43.3254778, "lon": 5.3741167, "tags": {"bus": "yes", "name": "Casanova \u00c9tats-Unis", "name:oc": "Casan\u00f2va - Estats Units", "public_transport": "stop_position"}}, {"type": "node", "id": 4336038607, "lat": 43.3459076, "lon": 5.3801086, "tags": {"amenity": "shelter", "bench": "yes", "name": "Coxe Mairie 13-14", "network": "RTM", "operator": "R\u00e9gie des Transports Marseillais", "shelter_type": "public_transport"}}, {"type": "node", "id": 4336038608, "lat": 43.3460834, "lon": 5.3808037, "tags": {"bench": "no", "bus": "yes", "description": "Arr\u00eat desservi lorsque le passage rue Coxe est impossible.", "highway": "bus_stop", "name": "Coxe Mairie 13-14", "name:oc": "C\u00f2xe - Comuna 13 e 14", "public_transport": "platform", "shelter": "no", "source:name:oc": "ieo-bdtopoc", "wheelchair": "no"}}, {"type": "node", "id": 4336038609, "lat": 43.3461489, "lon": 5.3808236, "tags": {"bus": "yes", "description": "Arr\u00eat desservi lorsque le passage rue Coxe est impossible.", "name": "Coxe Mairie 13-14", "name:oc": "C\u00f2xe - Comuna 13 e 14", "public_transport": "stop_position", "source:name:oc": "ieo-bdtopoc"}}, {"type": "node", "id": 4336038611, "lat": 43.3459133, "lon": 5.3819617, "tags": {"bench": "no", "bus": "yes", "highway": "bus_stop", "name": "Coxe Massenet", "name:oc": "C\u00f2xe - Massenet", "public_transport": "platform", "shelter": "no", "source:name:oc": "ieo-bdtopoc", "wheelchair": "no"}}, {"type": "node", "id": 4336038612, "lat": 43.3476658, "lon": 5.3774904, "tags": {"bench": "no", "bus": "yes", "description": "Arr\u00eat desservi lorsque le passage rue Coxe est impossible.", "highway": "bus_stop", "name": "Saint-Joseph Les Lions", "name:oc": "Sant Jos\u00e8p - Lei Leons", "public_transport": "platform", "shelter": "no", "source:name:oc": "ieo-bdtopoc", "wheelchair": "no"}}, {"type": "node", "id": 4336038613, "lat": 43.3477, "lon": 5.3775177, "tags": {"bus": "yes", "description": "Arr\u00eat desservi lorsque le passage rue Coxe est impossible.", "name": "Saint-Joseph Les Lions", "name:oc": "Sant Jos\u00e8p - Lei Leons", "public_transport": "stop_position", "source:name:oc": "ieo-bdtopoc"}}, {"type": "node", "id": 4336038614, "lat": 43.3483124, "lon": 5.3760729, "tags": {"bench": "no", "bus": "yes", "highway": "bus_stop", "name": "Saint-Joseph Les Lions", "name:oc": "Sant Jos\u00e8p - Lei Leons", "public_transport": "platform", "shelter": "no", "source:name:oc": "ieo-bdtopoc", "wheelchair": "no"}}, {"type": "node", "id": 4336038714, "lat": 43.3487566, "lon": 5.3761078, "tags": {"bench": "no", "bus": "yes", "highway": "bus_stop", "name": "Saint-Joseph Les Lions", "name:oc": "Sant Jos\u00e8p - Lei Leons", "public_transport": "platform", "shelter": "no", "source:name:oc": "ieo-bdtopoc", "wheelchair": "no"}}, {"type": "node", "id": 4336038719, "lat": 43.3328519, "lon": 5.390184, "tags": {"bench": "no", "bus": "yes", "highway": "bus_stop", "name": "Sainte-Marthe Jourdan", "name:oc": "Santa Marta - Jordan", "public_transport": "platform", "shelter": "no", "source:name:oc": "ieo-bdtopoc", "wheelchair": "no"}}, {"type": "node", "id": 4336038720, "lat": 43.3363704, "lon": 5.3921796, "tags": {"bench": "no", "bus": "yes", "highway": "bus_stop", "name": "Sainte-Marthe Peupliers", "name:oc": "Santa Marta - Pibolas", "public_transport": "platform", "shelter": "no", "source:name:oc": "ieo-bdtopoc", "wheelchair": "no"}}, {"type": "node", "id": 4336038721, "lat": 43.3366454, "lon": 5.3920193, "tags": {"bench": "yes", "bus": "yes", "highway": "bus_stop", "name": "Sainte-Marthe Peupliers", "name:oc": "Santa Marta - Pibolas", "public_transport": "platform", "shelter": "yes", "source:name:oc": "ieo-bdtopoc", "wheelchair": "no"}}, {"type": "node", "id": 4336038722, "lat": 43.3347609, "lon": 5.3913394, "tags": {"bench": "no", "bus": "yes", "highway": "bus_stop", "name": "Sainte-Marthe Vert Bois", "name:oc": "Santa Marta - Bosc V\u00e8rd", "public_transport": "platform", "shelter": "no", "source:name:oc": "ieo-bdtopoc", "wheelchair": "no"}}, {"type": "node", "id": 4336038723, "lat": 43.3194318, "lon": 5.3900625, "tags": {"bus": "yes", "name": "Sainte-Marthe Colonel", "name:oc": "Santa Marta - Coron\u00e8u", "public_transport": "stop_position"}}, {"type": "node", "id": 4336039158, "lat": 43.325313, "lon": 5.3882319}, {"type": "node", "id": 4336039159, "lat": 43.3254545, "lon": 5.3881863}, {"type": "node", "id": 4336039211, "lat": 43.3328241, "lon": 5.390186}, {"type": "node", "id": 4336039212, "lat": 43.3329343, "lon": 5.3902524}, {"type": "node", "id": 4337600603, "lat": 43.3342985, "lon": 5.4075708}, {"type": "node", "id": 4337600604, "lat": 43.3344556, "lon": 5.4075761}, {"type": "node", "id": 4339468514, "lat": 43.3202931, "lon": 5.3714863, "tags": {"bench": "no", "bin": "yes", "bus": "yes", "description": "Lignes 36 et 49 cartreize", "highway": "bus_stop", "name": "Bougainville", "name:oc": "Bougainville", "public_transport": "platform", "shelter": "no", "source:name:oc": "ieo-bdtopoc", "tactile_paving": "no", "wheelchair": "no"}}, {"type": "node", "id": 4339468515, "lat": 43.3255824, "lon": 5.3798989, "tags": {"bench": "no", "bus": "yes", "highway": "bus_stop", "name": "Cimeti\u00e8re Du Canet", "name:oc": "Cement\u00e8ri Dau Canet", "public_transport": "platform", "shelter": "no", "source:name:oc": "ieo-bdtopoc", "wheelchair": "no"}}, {"type": "node", "id": 4339468516, "lat": 43.3256278, "lon": 5.3800478, "tags": {"bench": "no", "bus": "yes", "highway": "bus_stop", "name": "Cimeti\u00e8re du Canet", "name:oc": "Cement\u00e8ri Dau Canet", "public_transport": "platform", "shelter": "no", "source:name:oc": "ieo-bdtopoc", "wheelchair": "no"}}, {"type": "node", "id": 4339468517, "lat": 43.3241636, "lon": 5.3821841, "tags": {"bus": "yes", "name": "Gibes Moretti", "name:oc": "Gibas", "public_transport": "stop_position", "source:name:oc": "ieo-bdtopoc"}}, {"type": "node", "id": 4339468518, "lat": 43.3241897, "lon": 5.3822693, "tags": {"bench": "no", "bin": "yes", "bus": "yes", "check_date:shelter": "2023-02-23", "highway": "bus_stop", "lit": "yes", "name": "Gibes Moretti", "name:oc": "Gibas", "public_transport": "platform", "shelter": "no", "source:name:oc": "ieo-bdtopoc", "tactile_paving": "no"}}, {"type": "node", "id": 4339468519, "lat": 43.32446, "lon": 5.3823485, "tags": {"bench": "yes", "bin": "no", "bus": "yes", "check_date:shelter": "2023-02-23", "highway": "bus_stop", "lit": "yes", "name": "Gibbes Moretti", "name:oc": "Gibas - Moretti", "public_transport": "platform", "shelter": "yes", "source:name:oc": "ieo-bdtopoc", "tactile_paving": "no"}}, {"type": "node", "id": 4339468520, "lat": 43.3241766, "lon": 5.3835447, "tags": {"bench": "yes", "bus": "yes", "highway": "bus_stop", "name": "Moretti Gibbes", "name:oc": "Moretti - Gibas", "public_transport": "platform", "shelter": "yes", "source:name:oc": "ieo-bdtopoc", "wheelchair": "no"}}, {"type": "node", "id": 4339468521, "lat": 43.3243468, "lon": 5.383597, "tags": {"bench": "yes", "bus": "yes", "highway": "bus_stop", "name": "Moretti Gibbes", "name:oc": "Moretti - Gibas", "public_transport": "platform", "shelter": "yes", "source:name:oc": "ieo-bdtopoc", "wheelchair": "no"}}, {"type": "node", "id": 4339468522, "lat": 43.3233946, "lon": 5.3860687, "tags": {"bench": "no", "bus": "yes", "highway": "bus_stop", "name": "Coll\u00e8ge Clair Soleil", "name:oc": "Moretti - Rosiers", "public_transport": "platform", "shelter": "no", "source:name:oc": "ieo-bdtopoc", "wheelchair": "no"}}, {"type": "node", "id": 4339468523, "lat": 43.3236053, "lon": 5.3862417, "tags": {"bench": "no", "bus": "yes", "highway": "bus_stop", "name": "Coll\u00e8ge Clair Soleil", "name:oc": "Moretti - Rosiers", "public_transport": "platform", "shelter": "no", "source:name:oc": "ieo-bdtopoc", "wheelchair": "no"}}, {"type": "node", "id": 4339470246, "lat": 43.3235814, "lon": 5.3882339, "tags": {"bench": "no", "bus": "yes", "highway": "bus_stop", "name": "Moretti Saint-Marthe", "name:oc": "Moretti - Santa Marta", "public_transport": "platform", "shelter": "yes", "source:name:oc": "ieo-bdtopoc", "wheelchair": "no"}}, {"type": "node", "id": 4339470247, "lat": 43.3237458, "lon": 5.3882252, "tags": {"bench": "yes", "bus": "yes", "highway": "bus_stop", "name": "Moretti Saint-Marthe", "name:oc": "Moretti - Santa Marta", "public_transport": "platform", "shelter": "yes", "source:name:oc": "ieo-bdtopoc", "wheelchair": "no"}}, {"type": "node", "id": 4339517085, "lat": 43.3356383, "lon": 5.3744488, "tags": {"bench": "no", "bin": "no", "bus": "yes", "highway": "bus_stop", "lit": "no", "name": "Amp\u00e8re Gay Lussac", "name:oc": "Amp\u00e8re - Gai Lussac", "public_transport": "platform", "shelter": "no", "tactile_paving": "no"}}, {"type": "node", "id": 4339517086, "lat": 43.3357221, "lon": 5.3745304, "tags": {"bus": "yes", "name": "Amp\u00e8re Gay Lussac", "name:oc": "Amp\u00e8re - Gai Lussac", "public_transport": "stop_position"}}, {"type": "node", "id": 4339517087, "lat": 43.3363396, "lon": 5.3744756, "tags": {"bench": "yes", "bin": "no", "bus": "yes", "highway": "bus_stop", "lit": "no", "name": "Amp\u00e8re Gay Lussac", "name:oc": "Amp\u00e8re - Gai Lussac", "public_transport": "platform", "shelter": "yes", "tactile_paving": "no"}}, {"type": "node", "id": 4339517088, "lat": 43.3363402, "lon": 5.374385, "tags": {"bus": "yes", "name": "Amp\u00e8re Gay Lussac", "name:oc": "Amp\u00e8re - Gai Lussac", "public_transport": "stop_position"}}, {"type": "node", "id": 4339517302, "lat": 43.3329417, "lon": 5.374604, "tags": {"bus": "yes", "name": "Gay Lussac G\u00e8ze", "name:oc": "Gai Lussac - G\u00e8sa", "public_transport": "stop_position"}}, {"type": "node", "id": 4339517303, "lat": 43.3330084, "lon": 5.3746741}, {"type": "node", "id": 4339517304, "lat": 43.3341175, "lon": 5.3745092, "tags": {"bench": "yes", "bin": "no", "bus": "yes", "highway": "bus_stop", "lit": "no", "name": "Gay Lussac", "name:oc": "Gai Lussac", "public_transport": "platform", "shelter": "yes", "tactile_paving": "no"}}, {"type": "node", "id": 4339517305, "lat": 43.3344428, "lon": 5.3747133, "tags": {"bus": "yes", "name": "Gay Lussac", "name:oc": "Gai Lussac", "public_transport": "stop_position"}}, {"type": "node", "id": 4339517306, "lat": 43.3344931, "lon": 5.3748149, "tags": {"bench": "no", "bin": "no", "bus": "yes", "highway": "bus_stop", "lit": "no", "name": "Gay Lussac", "name:oc": "Gai Lussac", "public_transport": "platform", "shelter": "no", "tactile_paving": "no"}}, {"type": "node", "id": 4339517307, "lat": 43.3315578, "lon": 5.3871657, "tags": {"bus": "yes", "fixme": "emplacement approximatif", "name": "Gibbes Calvet", "name:oc": "Gibas - Calvet", "public_transport": "stop_position", "source:name:oc": "ieo-bdtopoc"}}, {"type": "node", "id": 4339517308, "lat": 43.3322256, "lon": 5.3863009, "tags": {"bench": "yes", "bus": "yes", "highway": "bus_stop", "name": "Gibbes Calvet", "name:oc": "Gibas - Calvet", "public_transport": "platform", "shelter": "yes", "source:name:oc": "ieo-bdtopoc", "tactile_paving": "yes", "wheelchair": "yes"}}, {"type": "node", "id": 4339517309, "lat": 43.3316057, "lon": 5.3871658, "tags": {"bench": "yes", "bus": "yes", "fixme": "emplacement approximatif", "highway": "bus_stop", "name": "Gibbes Calvet", "name:oc": "Gibas - Calvet", "public_transport": "platform", "shelter": "yes", "source:name:oc": "ieo-bdtopoc", "tactile_paving": "yes", "wheelchair": "yes"}}, {"type": "node", "id": 4339517310, "lat": 43.3322846, "lon": 5.3862794, "tags": {"bus": "yes", "fixme": "emplacement approximatif", "name": "Gibbes Calvet", "name:oc": "Gibas - Calvet", "public_transport": "stop_position", "source:name:oc": "ieo-bdtopoc"}}, {"type": "node", "id": 4339517991, "lat": 43.3386621, "lon": 5.3729428, "tags": {"bench": "yes", "bin": "no", "bus": "yes", "highway": "bus_stop", "lit": "no", "name": "Cit\u00e9 Bassens", "name:oc": "Ciutat Bassens", "public_transport": "platform", "shelter": "yes", "tactile_paving": "no"}}, {"type": "node", "id": 4339517992, "lat": 43.3387218, "lon": 5.3730282, "tags": {"bus": "yes", "name": "Cit\u00e9 Bassens", "name:oc": "Ciutat Bassens", "public_transport": "stop_position"}}, {"type": "node", "id": 4339517993, "lat": 43.3389725, "lon": 5.3728685, "tags": {"bus": "yes", "name": "Cit\u00e9 Bassens", "name:oc": "Ciutat Bassens", "public_transport": "stop_position"}}, {"type": "node", "id": 4339517994, "lat": 43.3390425, "lon": 5.3729253, "tags": {"bench": "no", "bin": "no", "bus": "yes", "highway": "bus_stop", "lit": "no", "name": "Cit\u00e9 Bassens", "name:oc": "Ciutat Bassens", "public_transport": "platform", "shelter": "no", "tactile_paving": "no"}}, {"type": "node", "id": 4339517995, "lat": 43.3384531, "lon": 5.382473, "tags": {"bench": "yes", "bin": "no", "bus": "yes", "highway": "bus_stop", "lit": "no", "name": "MIN Arnavaux", "name:oc": "MIN Arnav\u00e8us", "public_transport": "platform", "shelter": "yes", "source:name:oc": "ieo-bdtopoc", "tactile_paving": "no"}}, {"type": "node", "id": 4339517996, "lat": 43.3393583, "lon": 5.3808918, "tags": {"bus": "yes", "name": "MIN Arnavaux", "name:oc": "MIN Arnav\u00e8us", "public_transport": "stop_position", "source:name:oc": "ieo-bdtopoc"}}, {"type": "node", "id": 4339517997, "lat": 43.3394217, "lon": 5.380928, "tags": {"bench": "yes", "bin": "no", "bus": "yes", "highway": "bus_stop", "lit": "no", "name": "MIN Arnavaux", "name:oc": "MIN Arnav\u00e8us", "public_transport": "platform", "shelter": "yes", "source:name:oc": "ieo-bdtopoc", "tactile_paving": "yes"}}, {"type": "node", "id": 4339518002, "lat": 43.3370973, "lon": 5.3850768, "tags": {"bench": "yes", "bin": "yes", "bus": "yes", "fixme": "Arr\u00eat en travaux (Ao\u00fbt 2016)", "highway": "bus_stop", "lit": "no", "name": "MIN Gibbes", "name:oc": "MIN Gibas", "public_transport": "platform", "shelter": "yes", "source:name:oc": "ieo-bdtopoc", "tactile_paving": "no"}}, {"type": "node", "id": 4339518003, "lat": 43.3375374, "lon": 5.3849508, "tags": {"bus": "yes", "name": "MIN Gibbes", "name:oc": "MIN Gibas", "public_transport": "stop_position", "source:name:oc": "ieo-bdtopoc"}}, {"type": "node", "id": 4339518004, "lat": 43.3375723, "lon": 5.3850385, "tags": {"bench": "yes", "bin": "no", "bus": "yes", "highway": "bus_stop", "lit": "no", "name": "MIN Gibbes", "name:oc": "MIN Gibas", "public_transport": "platform", "shelter": "yes", "source:name:oc": "ieo-bdtopoc", "tactile_paving": "no"}}, {"type": "node", "id": 4343595353, "lat": 43.3376312, "lon": 5.3948075, "tags": {"bus": "yes", "name": "Forge Dolet", "name:oc": "Farga - Dolet", "public_transport": "stop_position", "source:name:oc": "ieo-bdtopoc"}}, {"type": "node", "id": 4343595354, "lat": 43.337683, "lon": 5.3948173, "tags": {"bench": "no", "bus": "yes", "highway": "bus_stop", "name": "Forge Dolet", "name:oc": "Farga - Dolet", "public_transport": "platform", "shelter": "no", "source:name:oc": "ieo-bdtopoc", "wheelchair": "no"}}, {"type": "node", "id": 4343595356, "lat": 43.3369832, "lon": 5.3968229, "tags": {"bench": "no", "bus": "yes", "highway": "bus_stop", "name": "La Margeray", "name:oc": "La Margerai", "public_transport": "platform", "shelter": "no", "wheelchair": "yes"}}, {"type": "node", "id": 4346589809, "lat": 43.3330001, "lon": 5.3678606, "tags": {"bench": "no", "bin": "no", "bus": "yes", "highway": "bus_stop", "lit": "no", "name": "CFA Corot", "name:oc": "Aigas Ladas - Cor\u00f2t", "public_transport": "platform", "shelter": "no", "source:name:oc": "ieo-bdtopoc", "tactile_paving": "no", "wheelchair": "no"}}, {"type": "node", "id": 4348022550, "lat": 43.3325351, "lon": 5.3805995, "tags": {"bus": "yes", "name": "Arnavaux Jaur\u00e8s", "name:oc": "Arnav\u00e8us - Jaur\u00e8s", "public_transport": "stop_position"}}, {"type": "node", "id": 4348022551, "lat": 43.3325779, "lon": 5.3806044, "tags": {"bench": "no", "bus": "yes", "highway": "bus_stop", "name": "Arnavaux Jaur\u00e8s", "name:oc": "Arnav\u00e8us - Jaur\u00e8s", "public_transport": "platform", "shelter": "no"}}, {"type": "node", "id": 4348022552, "lat": 43.3328002, "lon": 5.3788329, "tags": {"bus": "yes", "name": "Arnavaux Tisseron", "name:oc": "Arnav\u00e8us - Jaur\u00e8s", "public_transport": "stop_position"}}, {"type": "node", "id": 4348022553, "lat": 43.3328324, "lon": 5.3787845, "tags": {"bench": "no", "bus": "yes", "highway": "bus_stop", "name": "Arnavaux Tisseron", "name:oc": "Arnav\u00e8us - Jaur\u00e8s", "public_transport": "platform", "shelter": "no"}}, {"type": "node", "id": 4348022554, "lat": 43.3315071, "lon": 5.3857658, "tags": {"bench": "no", "bus": "yes", "highway": "bus_stop", "name": "Arnavaux", "name:oc": "Arnav\u00e8us", "public_transport": "platform", "shelter": "no", "source:name:oc": "ieo-bdtopoc"}}, {"type": "node", "id": 4348022555, "lat": 43.3315153, "lon": 5.3856911, "tags": {"bus": "yes", "name": "Arnavaux", "name:oc": "Arnav\u00e8us", "public_transport": "stop_position", "source:name:oc": "ieo-bdtopoc"}}, {"type": "node", "id": 4348022558, "lat": 43.3309899, "lon": 5.3810413, "tags": {"bus": "yes", "name": "Bovet Muret", "name:oc": "Bover - Muret", "public_transport": "stop_position"}}, {"type": "node", "id": 4348022559, "lat": 43.331034, "lon": 5.3810635, "tags": {"bench": "no", "bus": "yes", "highway": "bus_stop", "name": "Bovet Muret", "name:oc": "Bover - Muret", "public_transport": "platform", "shelter": "no"}}, {"type": "node", "id": 4348022560, "lat": 43.3201743, "lon": 5.3804838, "tags": {"bus": "yes", "name": "Gibbes Bon Secours", "name:oc": "Gibas - B\u00f2n Secors", "public_transport": "stop_position", "source:name:oc": "ieo-bdtopoc"}}, {"type": "node", "id": 4348022561, "lat": 43.3201251, "lon": 5.3804153, "tags": {"bench": "no", "bin": "no", "bus": "yes", "highway": "bus_stop", "lit": "no", "name": "Gibbes Bon Secours", "name:oc": "Gibas - B\u00f2n Secors", "public_transport": "platform", "shelter": "no", "source:name:oc": "ieo-bdtopoc", "tactile_paving": "no"}}, {"type": "node", "id": 4348022562, "lat": 43.3291735, "lon": 5.3849606, "tags": {"bench": "yes", "bus": "yes", "highway": "bus_stop", "name": "Gibbes Larousse", "name:oc": "Gibas - Larossa", "public_transport": "platform", "shelter": "yes", "source:name:oc": "ieo-bdtopoc"}}, {"type": "node", "id": 4348022563, "lat": 43.3292311, "lon": 5.3849512, "tags": {"bus": "yes", "name": "Gibbes Larousse", "name:oc": "Gibas - Larossa", "public_transport": "stop_position"}}, {"type": "node", "id": 4348022564, "lat": 43.3293353, "lon": 5.3847566, "tags": {"bus": "yes", "name": "Gibbes Larousse", "name:oc": "Gibas - Larossa", "public_transport": "stop_position", "source:name:oc": "ieo-bdtopoc"}}, {"type": "node", "id": 4348022565, "lat": 43.3293804, "lon": 5.3847537, "tags": {"bench": "no", "bus": "yes", "highway": "bus_stop", "name": "Gibbes Larousse", "name:oc": "Gibas - Larossa", "public_transport": "platform", "shelter": "no", "source:name:oc": "ieo-bdtopoc"}}, {"type": "node", "id": 4348022566, "lat": 43.3191356, "lon": 5.379473, "tags": {"bus": "yes", "name": "Gibbes Plombi\u00e8res", "name:oc": "Gibas - Plomb\u00e8ras", "public_transport": "stop_position", "source:name:oc": "ieo-bdtopoc"}}, {"type": "node", "id": 4348022567, "lat": 43.3191773, "lon": 5.3794338, "tags": {"bench": "no", "bin": "no", "bus": "yes", "highway": "bus_stop", "lit": "no", "name": "Gibbes Plombi\u00e8res", "name:oc": "Gibas - Plomb\u00e8ras", "public_transport": "platform", "shelter": "no", "source:name:oc": "ieo-bdtopoc", "tactile_paving": "no"}}, {"type": "node", "id": 4348022568, "lat": 43.3284584, "lon": 5.3851233, "tags": {"bus": "yes", "name": "Gibbes Rouffe", "name:oc": "Gibas - Rofe", "public_transport": "stop_position", "source:name:oc": "ieo-bdtopoc"}}, {"type": "node", "id": 4348022569, "lat": 43.328436, "lon": 5.3851793, "tags": {"bench": "no", "bus": "yes", "highway": "bus_stop", "name": "Gibbes Rouffe", "name:oc": "Gibas - Rofe", "public_transport": "platform", "shelter": "no", "source:name:oc": "ieo-bdtopoc"}}, {"type": "node", "id": 4348022570, "lat": 43.3225438, "lon": 5.3825072, "tags": {"bench": "yes", "bus": "yes", "highway": "bus_stop", "name": "Saint-Gabriel", "name:oc": "Sant Gabri\u00e8l", "public_transport": "platform", "shelter": "yes", "source:name:oc": "ieo-bdtopoc", "tactile_paving": "yes", "wheelchair": "yes"}}, {"type": "node", "id": 4348022571, "lat": 43.322576, "lon": 5.3825449, "tags": {"bus": "yes", "name": "Saint-Gabriel", "name:oc": "Sant Gabri\u00e8l", "public_transport": "stop_position", "source:name:oc": "ieo-bdtopoc"}}, {"type": "node", "id": 4348022572, "lat": 43.3226245, "lon": 5.3829286, "tags": {"bus": "yes", "name": "Saint-Gabriel", "name:oc": "Sant Gabri\u00e8l", "public_transport": "stop_position", "source:name:oc": "ieo-bdtopoc"}}, {"type": "node", "id": 4348022573, "lat": 43.3226565, "lon": 5.3829799, "tags": {"bench": "no", "bus": "yes", "highway": "bus_stop", "name": "Saint-Gabriel", "name:oc": "Sant Gabri\u00e8l", "public_transport": "platform", "shelter": "no", "source:name:oc": "ieo-bdtopoc", "tactile_paving": "yes", "wheelchair": "yes"}}, {"type": "node", "id": 4348022574, "lat": 43.3331642, "lon": 5.3786942, "tags": {"bus": "yes", "name": "Tisseron", "name:oc": "Tisseron", "public_transport": "stop_position"}}, {"type": "node", "id": 4348022575, "lat": 43.3331649, "lon": 5.3786488, "tags": {"bench": "no", "bus": "yes", "highway": "bus_stop", "name": "Tisseron", "name:oc": "Tisseron", "public_transport": "platform", "shelter": "no"}}, {"type": "node", "id": 4348022999, "lat": 43.3310374, "lon": 5.3806745, "tags": {"bench": "yes", "bus": "yes", "highway": "bus_stop", "name": "Bovet Muret", "name:oc": "Bover - Muret", "public_transport": "platform", "shelter": "yes"}}, {"type": "node", "id": 4348023000, "lat": 43.3310668, "lon": 5.3807592, "tags": {"bus": "yes", "name": "Bovet Muret", "name:oc": "Bover - Muret", "public_transport": "stop_position"}}, {"type": "node", "id": 4348023001, "lat": 43.3329148, "lon": 5.3832106, "tags": {"bench": "no", "bus": "yes", "highway": "bus_stop", "name": "Canet Gare", "name:oc": "Canet - Estacion", "public_transport": "platform", "shelter": "no", "source:name:oc": "ieo-bdtopoc"}}, {"type": "node", "id": 4348023002, "lat": 43.3328805, "lon": 5.383245, "tags": {"bus": "yes", "name": "Canet Gare", "name:oc": "Canet - Estacion", "public_transport": "stop_position", "source:name:oc": "ieo-bdtopoc"}}, {"type": "node", "id": 4348023003, "lat": 43.3198002, "lon": 5.3823022, "tags": {"bus": "yes", "name": "Carri\u00e8res Bon Secours", "name:oc": "Peiriera - B\u00f2n Secors", "public_transport": "stop_position", "source:name:oc": "ieo-bdtopoc"}}, {"type": "node", "id": 4348023004, "lat": 43.3198618, "lon": 5.3822834, "tags": {"bench": "yes", "bus": "yes", "highway": "bus_stop", "name": "Carri\u00e8res Bon Secours", "name:oc": "Peiriera - B\u00f2n Secors", "public_transport": "platform", "shelter": "yes", "source:name:oc": "ieo-bdtopoc"}}, {"type": "node", "id": 4348023007, "lat": 43.3323588, "lon": 5.3826512, "tags": {"bench": "yes", "bus": "yes", "highway": "bus_stop", "name": "Finat-Duclos", "name:oc": "Finat-Duclos", "public_transport": "platform", "shelter": "yes"}}, {"type": "node", "id": 4348023008, "lat": 43.3323959, "lon": 5.3826171, "tags": {"bus": "yes", "name": "Finat-Duclos", "name:oc": "Finat-Duclos", "public_transport": "stop_position"}}, {"type": "node", "id": 4348023009, "lat": 43.3271756, "lon": 5.3843859, "tags": {"bus": "yes", "name": "Gibbes D'Artagnan", "name:oc": "Gibas - D\u2019Artanhan", "public_transport": "stop_position", "source:name:oc": "ieo-bdtopoc"}}, {"type": "node", "id": 4348023010, "lat": 43.3271983, "lon": 5.3844646, "tags": {"bench": "no", "bus": "yes", "highway": "bus_stop", "name": "Gibbes d'Artagnan", "name:oc": "Gibas - D\u2019Artanhan", "public_transport": "platform", "shelter": "no", "source:name:oc": "ieo-bdtopoc"}}, {"type": "node", "id": 4348023011, "lat": 43.3266313, "lon": 5.3839875, "tags": {"bench": "no", "bus": "yes", "highway": "bus_stop", "name": "Gibbes D'Artagnan", "name:oc": "Gibas - D\u2019Artanhan", "public_transport": "platform", "shelter": "no", "source:name:oc": "ieo-bdtopoc"}}, {"type": "node", "id": 4348023012, "lat": 43.326638, "lon": 5.38405, "tags": {"bus": "yes", "name": "Gibbes d'Artagnan", "name:oc": "Gibas - D\u2019Artanhan", "public_transport": "stop_position", "source:name:oc": "ieo-bdtopoc"}}, {"type": "node", "id": 4348023013, "lat": 43.3310013, "lon": 5.3850458, "tags": {"bench": "yes", "bus": "yes", "highway": "bus_stop", "name": "HLM Station", "name:oc": "HLM Estacion", "public_transport": "platform", "shelter": "yes", "source:name:oc": "ieo-bdtopoc"}}, {"type": "node", "id": 4348023014, "lat": 43.3334118, "lon": 5.3780498, "tags": {"bench": "yes", "bus": "yes", "highway": "bus_stop", "name": "Le Canet Jean Jaur\u00e8s", "name:oc": "Lo Canet - Joan Jaur\u00e8s", "public_transport": "platform", "shelter": "yes"}}, {"type": "node", "id": 4348023017, "lat": 43.3324455, "lon": 5.3850099, "tags": {"bus": "yes", "name": "R\u00e9sidence Station", "name:oc": "Resid\u00e9ncia - Estacion", "public_transport": "stop_position", "source:name:oc": "ieo-bdtopoc"}},