{"version": 0.6, "generator": "Overpass API 0.7.62.11 87bfad18", "osm3s": {"timestamp_osm_base": "2026-03-24T09:02:27Z", "copyright": "The data included in this document is from www.openstreetmap.org. The data is made available under ODbL."}, "elements": [{"type": "node", "id": 266288992, "lat": 43.2929193, "lon": 5.4018419, "tags": {"addr:city": "Marseille", "addr:housenumber": "103", "amenity": "fuel", "brand": "TotalEnergies", "brand:wikidata": "Q154037", "compressed_air": "yes", "fuel:diesel": "yes", "fuel:e10": "yes", "fuel:e85": "yes", "fuel:octane_98": "yes", "name": "TotalEnergies", "name:oc": "Totalenergia", "opening_hours": "24/7", "operator": "Total", "ref:FR:prix-carburants": "13005012", "shop": "convenience;gas", "source": "Minist\u00e8re de l'Economie, de l'Industrie et du Num\u00e9rique - 22/10/2016"}}, {"type": "node", "id": 445465152, "lat": 43.2987673, "lon": 5.389793, "tags": {"addr:postcode": "13005", "disused:amenity": "bar", "old_name": "Couleur Caf\u00e9", "shop": "vacant", "wheelchair": "yes"}}, {"type": "node", "id": 827870372, "lat": 43.29097, "lon": 5.3926628}, {"type": "node", "id": 827890840, "lat": 43.2956857, "lon": 5.3976231}, {"type": "node", "id": 827912116, "lat": 43.2957078, "lon": 5.3975919}, {"type": "node", "id": 827913517, "lat": 43.2921881, "lon": 5.3970311}, {"type": "node", "id": 827931055, "lat": 43.291007, "lon": 5.3928085}, {"type": "node", "id": 827936280, "lat": 43.2940508, "lon": 5.40118}, {"type": "node", "id": 827949022, "lat": 43.2910437, "lon": 5.3926251}, {"type": "node", "id": 827961172, "lat": 43.2923055, "lon": 5.3970032}, {"type": "node", "id": 827962399, "lat": 43.2923008, "lon": 5.3969689}, {"type": "node", "id": 827968064, "lat": 43.2921877, "lon": 5.3970271}, {"type": "node", "id": 827990786, "lat": 43.2941133, "lon": 5.4004993}, {"type": "node", "id": 827991339, "lat": 43.2957076, "lon": 5.3976246}, {"type": "node", "id": 827992924, "lat": 43.2956863, "lon": 5.3975896}, {"type": "node", "id": 827998059, "lat": 43.29407, "lon": 5.4012469}, {"type": "node", "id": 828027894, "lat": 43.2910808, "lon": 5.3927711}, {"type": "node", "id": 991816648, "lat": 43.2938184, "lon": 5.3873267, "tags": {"amenity": "pub", "name": "Le Cyrano", "name:oc": "Lo Ciran", "shop": "tobacco", "source:name:oc": "ieo-bdtopoc"}}, {"type": "node", "id": 1033060944, "lat": 43.2958354, "lon": 5.3909449, "tags": {"addr:country": "FR", "name": "La Fourn\u00e9e de Provence", "opening_hours": "PH,Tu-Su 05:00-20:30", "shop": "bakery"}}, {"type": "node", "id": 1102602137, "lat": 43.2938533, "lon": 5.3872326, "tags": {"shop": "hairdresser"}}, {"type": "node", "id": 1209777864, "lat": 43.2854372, "lon": 5.3947776, "tags": {"addr:country": "FR", "name": "Boulangerie P\u00e2tisserie", "shop": "bakery"}}, {"type": "node", "id": 1282660439, "lat": 43.2906032, "lon": 5.3994627, "tags": {"addr:city": "Marseille", "addr:country": "FR", "addr:housenumber": "22", "addr:postcode": "13005", "addr:street": "Boulevard Jean Moulin", "brand": "Intermarch\u00e9 Super", "brand:wikidata": "Q98278038", "level": "0", "name": "Intermarch\u00e9 Super", "opening_hours": "Mo-Sa 08:30-20:30; Su 08:30-12:30", "operator": "SAS Calao 231", "phone": "+33 4 91 18 42 20", "shop": "supermarket", "wheelchair": "yes"}}, {"type": "node", "id": 1290701103, "lat": 43.2960823, "lon": 5.395655, "tags": {"name": "Alimentation g\u00e9n\u00e9rale", "shop": "convenience"}}, {"type": "node", "id": 1290701114, "lat": 43.2973678, "lon": 5.3941677, "tags": {"branch": "Marseille abb\u00e9 de l'\u00e9p\u00e9e", "brand": "Utile", "brand:wikidata": "Q2529029", "name": "Utile", "opening_hours": "Mo-Sa 08:00-19:30; Su 08:00-13:00", "operator": "Syst\u00e8me U", "shop": "convenience", "website": "https://www.magasins-u.com/magasin/uexpress-marseille.m90174", "wheelchair": "yes"}}, {"type": "node", "id": 1290701119, "lat": 43.2972093, "lon": 5.3942565, "tags": {"name": "Alimentation g\u00e9n\u00e9rale", "opening_hours": "Mo-Th 16:00-24:00; Fr,Sa 16:00-04:00; Su 13:00-24:00", "shop": "convenience"}}, {"type": "node", "id": 1401579079, "lat": 43.2911765, "lon": 5.4004154}, {"type": "node", "id": 1401579108, "lat": 43.2911837, "lon": 5.4003955}, {"type": "node", "id": 1401579152, "lat": 43.2911368, "lon": 5.4003696}, {"type": "node", "id": 1401579158, "lat": 43.2911293, "lon": 5.4003923}, {"type": "node", "id": 1577032873, "lat": 43.299595, "lon": 5.3885493, "tags": {"male": "yes", "name": "Henry Coiffure", "shop": "hairdresser"}}, {"type": "node", "id": 1577032882, "lat": 43.2995592, "lon": 5.3885343, "tags": {"name": "Librairie Orientale", "shop": "books", "website": "http://lib.orientale.free.fr/"}}, {"type": "node", "id": 1662141453, "lat": 43.2954485, "lon": 5.3965437, "tags": {"addr:city": "Marseille", "addr:housenumber": "178", "contact:city": "Marseille 5eme Arrondissement", "contact:housenumber": "178", "contact:phone": "+33 4 91 48 45 52", "contact:postcode": "13005", "contact:street": "Bd Chave,", "delivery": "yes", "name": "Huguet Bijoutier Joaillier", "opening_hours": "Tu-Sa 10:00-12:30, 14:30-18:30", "payment:american_express": "yes", "payment:mastercard": "yes", "payment:visa": "yes", "ref:FR:SIRET": "31234777600014", "shop": "jewelry", "website": "https://www.bijouteriehuguet.com/"}}, {"type": "node", "id": 1713097229, "lat": 43.2902267, "lon": 5.3991775, "tags": {"alt_name": "Librairie Tacussel", "books": "academic", "name": "Librairie des Facult\u00e9s", "shop": "books", "website": "http://www.tacussel.fr/"}}, {"type": "node", "id": 1864130868, "lat": 43.2924143, "lon": 5.3957345, "tags": {"shop": "bakery", "wheelchair": "no"}}, {"type": "node", "id": 1864131496, "lat": 43.2944885, "lon": 5.3977375, "tags": {"addr:country": "FR", "name": "La Fourn\u00e9e d'Elo", "opening_hours": "Mo-Tu 06:00-20:00; Th-Su 06:00-20:00", "shop": "bakery", "wheelchair": "yes"}}, {"type": "node", "id": 1868857185, "lat": 43.2923131, "lon": 5.3926083, "tags": {"name": "Pressing Vitalis", "shop": "dry_cleaning", "wheelchair": "limited"}}, {"type": "node", "id": 1871295284, "lat": 43.2955408, "lon": 5.3911784, "tags": {"brand": "Utile", "brand:wikidata": "Q2529029", "brand:wikipedia": "en:Syst\u00e8me U", "name": "Utile", "opening_hours": "Mo-Sa 08:00-19:45; Su 08:30-12:45", "operator": "Syst\u00e8me U", "shop": "convenience", "website": "https://www.magasins-u.com/magasin/superu-marseillesaintpierre.m90249", "wheelchair": "no"}}, {"type": "node", "id": 1871305274, "lat": 43.2959093, "lon": 5.3905878, "tags": {"addr:country": "FR", "name": "La fourn\u00e9e d'Eug\u00e8ne", "outdoor_seating": "yes", "shop": "bakery"}}, {"type": "node", "id": 1871305275, "lat": 43.2959815, "lon": 5.3909204, "tags": {"name": "Amandine", "opening_hours": "Mo-Sa 07:30-19:30; Su 07:30-19:00", "ref:FR:SIRET": "34973428500191", "shop": "pastry", "source": "INSEE - 2024-03"}}, {"type": "node", "id": 1871305276, "lat": 43.2962646, "lon": 5.390899, "tags": {"butcher": "pork", "craft": "caterer", "name": "Le Mont Brison", "shop": "butcher"}}, {"type": "node", "id": 1871305277, "lat": 43.2962139, "lon": 5.3909102, "tags": {"contact:housenumber": "63", "name": "C\u00f4te et Mer", "opening_hours": "Tu-Su 07:00-13:30", "shop": "seafood"}}, {"type": "node", "id": 1871305278, "lat": 43.2962587, "lon": 5.3905476, "tags": {"name": "L'artisan de Charolais", "opening_hours": "Tu,We,Fr,Sa 07:00-12:45,16:00-19:00; Th 07:00-12:45; Su 07:00-12:00", "shop": "butcher"}}, {"type": "node", "id": 1871305279, "lat": 43.2960498, "lon": 5.3909097, "tags": {"description": "Tarif s\u00e8che-linge: 1,20\u20ac pour 10 minutes.", "laundry_service": "no", "name": "La pince \u00e0 linge", "opening_hours": "Mo-Su,PH 06:00-20:00", "self_service": "yes", "shop": "laundry"}}, {"type": "node", "id": 1871305281, "lat": 43.295552, "lon": 5.39062, "tags": {"name": "Infiniment Fleurs", "shop": "florist"}}, {"type": "node", "id": 1871305283, "lat": 43.2958331, "lon": 5.3906039, "tags": {"female": "yes", "male": "yes", "name": "Harmonie coiffure", "opening_hours": "Tu,Th-Sa 09:00-18:30; We 09:00-17:00", "shop": "hairdresser"}}, {"type": "node", "id": 1871316004, "lat": 43.2961201, "lon": 5.3905583, "tags": {"name": "Lou Jardina\u00ef", "shop": "greengrocer"}}, {"type": "node", "id": 1871316008, "lat": 43.2961904, "lon": 5.3905476, "tags": {"name": "Cave M\u00e9renti\u00e9", "shop": "alcohol"}}, {"type": "node", "id": 1879018704, "lat": 43.2955364, "lon": 5.3909825, "tags": {"name": "Saveurs Proven\u00e7ales", "shop": "greengrocer"}}, {"type": "node", "id": 1882358508, "lat": 43.2944168, "lon": 5.3976794, "tags": {"name": "L'oasis des Saveurs", "shop": "greengrocer"}}, {"type": "node", "id": 1886599700, "lat": 43.2952458, "lon": 5.3931515, "tags": {"name": "La Huche d'Or", "opening_hours": "Tu-Sa 07:00-13:00,16:00-19:30; Su 07:00-13:00; Mo off", "shop": "bakery", "wheelchair": "limited"}}, {"type": "node", "id": 1932131603, "lat": 43.2920286, "lon": 5.3934204, "tags": {"branch": "Saint Pierre", "brand": "Super U", "brand:wikidata": "Q2529029", "brand:wikipedia": "fr:Syst\u00e8me U", "name": "Super U", "opening_hours": "Mo-Sa 08:30-19:30; Su 09:00-12:45", "operator": "Syst\u00e8me U", "phone": "+33 4 96 12 13 30", "shop": "supermarket", "website": "https://www.magasins-u.com/magasin/superu-marseillesaintpierre", "wheelchair": "yes"}}, {"type": "node", "id": 1933725530, "lat": 43.2939271, "lon": 5.3942937, "tags": {"addr:city": "Marseille", "addr:housenumber": "31", "addr:street": "Rue Goudard", "fruit": "yes", "name": "Alimentation G\u00e9n\u00e9rale", "shop": "convenience", "vegetable": "yes"}}, {"type": "node", "id": 1933738210, "lat": 43.2952416, "lon": 5.3930648, "tags": {"contact:housenumber": "110", "female": "yes", "male": "yes", "name": "Emporio", "opening_hours": "Tu-Sa 09:00-18:30", "shop": "hairdresser", "wheelchair": "no"}}, {"type": "node", "id": 1933749864, "lat": 43.2955666, "lon": 5.3943349, "tags": {"brand": "Interflora", "brand:wikidata": "Q692179", "brand:wikipedia": "en:Interflora", "name": "Interflora", "shop": "florist", "website": "https://www.interflora.fr/"}}, {"type": "node", "id": 1933753316, "lat": 43.2950825, "lon": 5.3939352, "tags": {"name": "Boucherie Charcuterie Cr\u00e9merie", "shop": "butcher", "wheelchair": "no"}}, {"type": "node", "id": 1933753845, "lat": 43.2956135, "lon": 5.393718, "tags": {"addr:city": "Marseille", "addr:housenumber": "2", "addr:postcode": "13005", "addr:street": "Rue Saint-Michel", "name": "ABC'oiffure", "shop": "hairdresser"}}, {"type": "node", "id": 1933755839, "lat": 43.2952055, "lon": 5.3923018, "tags": {"amenity": "cafe", "contact:housenumber": "92", "name": "La R\u00eaveuse", "opening_hours": "Tu-Sa 09:30-20:00", "shop": "books", "wheelchair": "no"}}, {"type": "node", "id": 1933756689, "lat": 43.2951577, "lon": 5.3914622, "tags": {"name": "Presse Librairie Papeterie Fantoni", "shop": "newsagent", "wheelchair": "limited"}}, {"type": "node", "id": 1933761760, "lat": 43.2954379, "lon": 5.3919108, "tags": {"name": "Tendance gourmande", "opening_hours": "Mo,Tu,Th-Sa 06:30-19:00; Su 07:00-13:00", "shop": "bakery", "wheelchair": "no"}}, {"type": "node", "id": 1933762725, "lat": 43.2954383, "lon": 5.3919913, "tags": {"name": "La Frida Loca Tattoo", "phone": "+33 9 73 65 21 51", "shop": "tattoo"}}, {"type": "node", "id": 1933765640, "lat": 43.2954524, "lon": 5.3922025, "tags": {"addr:housenumber": "81", "name": "Chemin Faisant", "shop": "clothes", "wheelchair": "no"}}, {"type": "node", "id": 1933769085, "lat": 43.2955989, "lon": 5.3948258, "tags": {"addr:city": "Marseille", "addr:housenumber": "137", "butcher": "pork", "craft": "caterer", "name": "Valange Traiteur", "phone": "+33491424766", "shop": "butcher"}}, {"type": "node", "id": 1933774508, "lat": 43.2956418, "lon": 5.3955687, "tags": {"addr:city": "Marseille", "addr:housenumber": "151", "name": "Jean-Claude Biguine", "opening_hours": "Mo-Sa 09:00-18:45; Su off", "phone": "+33 4 91 42 82 64", "shop": "hairdresser", "wheelchair": "limited"}}, {"type": "node", "id": 1933787445, "lat": 43.2957219, "lon": 5.3968535, "tags": {"addr:city": "Marseille", "addr:housenumber": "175", "brand": "Carrefour Express", "brand:wikidata": "Q2940190", "name": "Carrefour Express", "opening_hours": "Mo-Sa 07:00-21:00; Su 08:00-20:00", "phone": "+33 4 96 16 17 62", "ref:FR:SIRET": "34513048808374", "shop": "convenience", "website": "https://www.carrefour.fr/magasin/express-marseille-chave-175", "wheelchair": "yes"}}, {"type": "node", "id": 1971445919, "lat": 43.2949581, "lon": 5.3939458, "tags": {"addr:housenumber": "2", "addr:postcode": "13005", "addr:street": "Rue Goudard", "lottery": "yes", "name": "Tabac", "opening_hours": "Mo-Sa 07:00-19:00", "phone": "+33 491425910", "shop": "tobacco", "tickets:public_transport": "yes", "wheelchair": "no"}}, {"type": "node", "id": 1992825612, "lat": 43.2948133, "lon": 5.3906881, "tags": {"check_date:opening_hours": "2023-11-05", "drink:wine": "retail", "name": "Vins, etc", "opening_hours": "Tu-Sa 11:00-13:00,17:00-20:00", "shop": "beverages"}}, {"type": "node", "id": 2019803233, "lat": 43.2881487, "lon": 5.392739, "tags": {"name": "Melina Shop", "payment:credit_cards": "yes", "shop": "convenience"}}, {"type": "node", "id": 2019803235, "lat": 43.2885818, "lon": 5.3930467, "tags": {"brand": "Casino Shop", "brand:wikidata": "Q89029601", "check_date:opening_hours": "2022-09-17", "name": "Casino Shop", "opening_hours:signed": "no", "operator": "Casino", "shop": "convenience"}}, {"type": "node", "id": 2019803237, "lat": 43.2882062, "lon": 5.3929654, "tags": {"addr:country": "FR", "name": "Le Fournil de mon P\u00e8re", "opening_hours": "Mo-Sa 05:00-21:00", "shop": "bakery"}}, {"type": "node", "id": 2019803238, "lat": 43.2881253, "lon": 5.3926578, "tags": {"name": "Les bi\u00e8res", "shop": "alcohol"}}, {"type": "node", "id": 2019916427, "lat": 43.2918612, "lon": 5.3933324, "tags": {"name": "Attyrance", "note": "Hommes uniquement", "shop": "hairdresser", "wheelchair": "limited"}}, {"type": "node", "id": 2019916432, "lat": 43.2928159, "lon": 5.3927329, "tags": {"fax": "+33 4 91 92 54 95", "name": "Gaz Elec", "note": "D\u00e9pannage - Entretien - Chaudi\u00e8re - WC", "phone": "+33 4 91 42 14 51", "shop": "variety_store"}}, {"type": "node", "id": 2019916439, "lat": 43.2918538, "lon": 5.3932062, "tags": {"name": "Jean Christian", "note": "Interflora", "shop": "florist", "wheelchair": "no"}}, {"type": "node", "id": 2019916442, "lat": 43.2918727, "lon": 5.393426, "tags": {"addr:country": "FR", "name": "Fournil Saint-Pierre", "shop": "bakery", "wheelchair": "yes"}}, {"type": "node", "id": 2062986840, "lat": 43.2938142, "lon": 5.4020597, "tags": {"brand": "Super U", "brand:wikidata": "Q2529029", "brand:wikipedia": "en:Syst\u00e8me U", "name": "Super U", "operator": "Super U", "shop": "supermarket"}}, {"type": "node", "id": 2123959863, "lat": 43.295461, "lon": 5.392281, "tags": {"addr:housenumber": "83", "addr:street": "Boulevard Chave", "brand": "Atol", "brand:wikidata": "Q2869542", "brand:wikipedia": "fr:Atol (opticien)", "name": "Atol", "opening_hours": "Tu-Sa 09:00-12:00,14:30-19:00", "shop": "optician", "wheelchair": "no"}}, {"type": "node", "id": 2123959865, "lat": 43.2952688, "lon": 5.39387, "tags": {"addr:city": "Marseille", "addr:housenumber": "128", "name": "D\u00e9coupe de mousse et Bultex", "opening_hours": "Mo-Sa 09:00-12:00,14:30-17:30", "shop": "furniture", "wheelchair": "no"}}, {"type": "node", "id": 2123959866, "lat": 43.2950909, "lon": 5.3906405, "tags": {"addr:housenumber": "66", "addr:street": "Boulevard Chave", "brand:wikipedia": "fr:Optic 2000", "name": "Art de Vue", "opening_hours": "Tu-Sa 09:30-12:30,14:00-19:00", "shop": "optician", "wheelchair": "no"}}, {"type": "node", "id": 2123959867, "lat": 43.2954444, "lon": 5.3920756, "tags": {"craft": "caterer", "cuisine": "italian", "name": "La Fabrique Italienne Maison Moutte", "opening_hours": "Tu-Sa 09:00-12:30,16:30-19:00; Su,Mo off", "shop": "pasta", "website": "http://maison-moutte.com/", "wheelchair": "yes"}}, {"type": "node", "id": 2187220984, "lat": 43.2975383, "lon": 5.390787, "tags": {"contact:housenumber": "29", "contact:phone": "+33 4 13 63 71 65", "contact:street": "Boulevard Eug\u00e8ne Pierre", "email": "contact@micr-os.com", "name": "Micr-OS.com", "opening_hours": "Tu-Fr 09:00-12:30,15:00-19:00; Sa 09:00-12:30; PH,Su,Mo off", "shop": "computer", "source": "survey", "website": "https://www.micr-os.com/"}}, {"type": "node", "id": 2203148394, "lat": 43.2952805, "lon": 5.4002894, "tags": {"addr:city": "Marseille", "addr:country": "FR", "addr:housenumber": "103", "amenity": "fuel", "brand": "TotalEnergies", "brand:wikidata": "Q154037", "brand:wikipedia": "fr:Total (entreprise)", "compressed_air": "yes", "fuel:diesel": "yes", "fuel:e10": "yes", "fuel:e85": "yes", "fuel:octane_98": "yes", "name": "TotalEnergies", "opening_hours": "24/7", "operator": "Total", "ref:FR:prix-carburants": "13005013", "shop": "convenience;gas", "source": "Minist\u00e8re de l'Economie, de l'Industrie et du Num\u00e9rique - 03/2020", "vending": "fuel", "vending_machine": "fuel"}}, {"type": "node", "id": 2368374080, "lat": 43.2930989, "lon": 5.4060379, "tags": {"addr:housenumber": "101", "check_date:opening_hours": "2025-02-26", "name": "Cristal Limi\u00f1ana", "opening_hours": "Mo-Fr 08:00-12:00,14:00-17:00", "shop": "alcohol", "source": "http://www.cristal-liminana.com/", "website": "http://www.cristal-liminana.com/"}}, {"type": "node", "id": 2545442586, "lat": 43.2953636, "lon": 5.3902441, "tags": {"contact:housenumber": "51", "name": "\u00c9picerie Paysanne Ad\u00e8le", "opening_hours": "Mo-Fr 10:00-13:00,16:00-19:00; Sa 10:00-13:00", "operator": "Association Ad\u00e8le", "shop": "convenience", "website": "https://adelemarseille.blogspot.com/"}}, {"type": "node", "id": 2844321781, "lat": 43.291045, "lon": 5.3995069, "tags": {"addr:housenumber": "18", "brand": "Lidl", "brand:website": "http://www.lidl.fr", "brand:wikidata": "Q151954", "brand:wikipedia": "en:Lidl", "level": "0", "name": "Lidl", "opening_hours": "Mo-Sa 08:30-20:00; Su 08:30-12:30", "operator": "Lidl", "ref:FR:NAF": "47.11D", "ref:FR:SIREN": "343262622", "ref:FR:SIRET": "34326262216103", "shop": "supermarket"}}, {"type": "node", "id": 3923217301, "lat": 43.2911486, "lon": 5.4003623}, {"type": "node", "id": 3923217302, "lat": 43.2911798, "lon": 5.4003775}, {"type": "node", "id": 4087718752, "lat": 43.2886693, "lon": 5.3933877, "tags": {"brand": "Audika", "brand:wikidata": "Q2870745", "name": "Audika", "opening_hours": "Tu-Sa 09:30-12:30,14:00-18:00", "shop": "hearing_aids", "source": "survey 2016"}}, {"type": "node", "id": 4087718762, "lat": 43.2924405, "lon": 5.3963583, "tags": {"brand": "Utile", "brand:wikidata": "Q2529029", "name": "Utile", "shop": "convenience", "source": "survey 2016"}}, {"type": "node", "id": 4087719911, "lat": 43.2909432, "lon": 5.3891807, "tags": {"addr:city": "Marseille", "addr:housenumber": "2", "contact:email": "contact@vracadit.fr", "name": "VRAC A DIT", "opening_hours": "Mo-Sa 09:00-20:00, Su 09:00-12:00", "organic": "only", "phone": "+33 4 65 96 53 20", "shop": "supermarket", "source": "local knowledge", "website": "https://www.facebook.com/EPICERIEVRACADIT"}}, {"type": "node", "id": 4360706142, "lat": 43.2944885, "lon": 5.4017174, "tags": {"addr:city": "Marseille", "addr:housenumber": "87", "brand": "Midas", "brand:wikidata": "Q3312613", "brand:wikipedia": "en:Midas (automotive service)", "contact:facebook": "https://www.facebook.com/MidasFr/", "name": "Midas", "opening_hours": "Mo-Fr 08:00-18:00; Sa 08:00-16:00", "operator": "Midas", "phone": "+33 4 91 94 11 11", "service": "parts;repair", "shop": "car_repair", "website": "https://www.midas.fr/"}}, {"type": "node", "id": 4443416797, "lat": 43.2954954, "lon": 5.3933085, "tags": {"addr:city": "Marseille", "addr:housenumber": "107", "description": "Boutique de cr\u00e9ations pr\u00eat-\u00e0-porter enfant, d\u00e9co, stickers, accessoires et bijoux femme", "name": "La Paix des M\u00e9nages", "shop": "baby_goods", "wheelchair": "yes"}}, {"type": "node", "id": 4922707946, "lat": 43.2976215, "lon": 5.3977544, "tags": {"name": "Boucherie Gonord", "opening_hours": "Tu-Sa 07:00-13:00,16:00-19:30, Th 07:00-13:00, Su 08:00-13:00", "shop": "butcher", "wheelchair": "limited"}}, {"type": "node", "id": 5171346281, "lat": 43.2955678, "lon": 5.3939032, "tags": {"name": "Les Mains Libres", "opening_hours": "Tu-Sa 07:30-13:00,16:00-19:30", "shop": "bakery", "website": "https://www.les-mains-libres.fr/"}}, {"type": "node", "id": 5310390514, "lat": 43.2899897, "lon": 5.3979419, "tags": {"name": "L'Oasis du bien \u00eatre", "shop": "beauty"}}, {"type": "node", "id": 5428420332, "lat": 43.2861186, "lon": 5.3919887, "tags": {"addr:city": "Marseille", "addr:housenumber": "37", "branch": "Supermarch\u00e9", "brand": "Utile", "brand:wikidata": "Q2529029", "name": "Utile", "operator": "Utile", "shop": "convenience"}}, {"type": "node", "id": 5793379514, "lat": 43.2917222, "lon": 5.4075146, "tags": {"addr:city": "Marseille", "addr:housenumber": "328-336", "name": "Dispano - Marseille Saint-Pierre", "opening_hours": "Mo-Fr 7:30-12:00; Mo-Th 13:30-17:00; Fr 13:30-16:00", "payment:cash": "yes", "payment:cheque": "yes", "payment:credit_cards": "yes", "payment:notes": "yes", "shop": "doityourself", "website": "https://www.dispano.fr/infos-agence/marseille-st-pierre-dispano-3768"}}, {"type": "node", "id": 5793379515, "lat": 43.2950117, "lon": 5.4026648, "tags": {"addr:city": "Marseille", "addr:housenumber": "19-21", "name": "Zolpan", "opening_hours": "Mo-Fr 6:30-18:00; Sa 8:00-12:00", "shop": "paint", "website": "https://www.zolpan.fr/Magasins/magasin-zolpan-marseille-5eme"}}, {"type": "node", "id": 6019951594, "lat": 43.2958851, "lon": 5.396229, "tags": {"brand": "Biocoop", "brand:wikidata": "Q2904039", "brand:wikipedia": "fr:Biocoop", "bulk_purchase": "yes", "check_date:opening_hours": "2025-11-12", "contact:city": "Marseille 5eme Arrondissement", "contact:housenumber": "103", "contact:phone": "+33 4 91 02 08 08", "contact:postcode": "13005", "contact:street": "Rue Du Camas", "name": "Biocoop", "official_name": "Biocoop Chave", "opening_hours": "Tu-We 09:30-19:30; Th 09:30-13:00,15:00-19:30; Fr-Sa 09:30-19:30", "organic": "only", "shop": "supermarket", "source": "cadastre-dgi-fr source : Direction G\u00e9n\u00e9rale des Imp\u00f4ts - Cadastre. Mise \u00e0 jour : 2010", "website": "https://www.biocoopchave.fr", "wheelchair": "yes"}}, {"type": "node", "id": 6027027618, "lat": 43.296657, "lon": 5.3958624, "tags": {"brand": "Intermarch\u00e9 Express", "brand:wikidata": "Q98278043", "brand:wikipedia": "fr:Intermarch\u00e9", "check_date:opening_hours": "2022-04-05", "name": "Intermarch\u00e9 Express", "official_name": "Intermarch\u00e9 Marseille Verdun", "opening_hours": "Mo-Sa 08:30-20:00; Su 08:45-12:30", "operator": "Groupement des Mousquetaires", "shop": "convenience", "toilets:wheelchair": "no", "website": "https://www.intermarche.com/home/magasins/accueil/bouches-du-rhone/marseille-07841.html", "wheelchair": "yes"}}, {"type": "node", "id": 6130017285, "lat": 43.2959559, "lon": 5.4055032, "tags": {"brand": "Carrefour City", "brand:wikidata": "Q2940187", "brand:wikipedia": "fr:Carrefour City", "name": "Carrefour City", "opening_hours": "Mo-Sa 07:00-22:00; Su 09:00-21:00", "phone": "+33 4 91 34 55 28", "shop": "convenience", "website": "https://www.carrefour.fr/magasin/city-marseille-chave"}}, {"type": "node", "id": 6227756460, "lat": 43.2917579, "lon": 5.4124772, "tags": {"name": "Maison fun\u00e9raire St Pierre", "shop": "funeral_directors"}}, {"type": "node", "id": 6227780877, "lat": 43.2917446, "lon": 5.4114236, "tags": {"name": "Au forum du batiment", "shop": "doityourself"}}, {"type": "node", "id": 6227784028, "lat": 43.2916914, "lon": 5.4108956, "tags": {"name": "Ets Durand Marbrerie", "shop": "funeral_directors"}}, {"type": "node", "id": 6253676554, "lat": 43.2951923, "lon": 5.3877172, "tags": {"female": "yes", "male": "yes", "name": "Charlie", "opening_hours": "Tu-Sa 09:00-18:00", "shop": "hairdresser"}}, {"type": "node", "id": 6349153658, "lat": 43.2899837, "lon": 5.3982091, "tags": {"shop": "bakery"}}, {"type": "node", "id": 6462343593, "lat": 43.289471, "lon": 5.3976187, "tags": {"male": "yes", "name": "Zoni Bernard", "opening_hours": "Tu-Sa 07:00-19:00", "shop": "hairdresser"}}, {"type": "node", "id": 6483608889, "lat": 43.2902067, "lon": 5.3990928, "tags": {"name": "Cordonnier", "shop": "shoe_repair"}}, {"type": "node", "id": 6483613988, "lat": 43.2897579, "lon": 5.3986764, "tags": {"name": "Chardel bureautique", "shop": "copyshop"}}, {"type": "node", "id": 7359870395, "lat": 43.2946408, "lon": 5.3871043, "tags": {"contact:housenumber": "43", "contact:street": "Place Jean Jaur\u00e8s", "name": "1000 Ans de Saveurs", "name:oc": "1000 ans de Sabors", "phone": "+33 4 86 77 52 64; +33 4 84 18 11 61", "ref:FR:SIRET": "75087830800022", "shop": "convenience", "source:name:oc": "ieo-bdtopoc"}}, {"type": "node", "id": 7359870396, "lat": 43.2947582, "lon": 5.3871564, "tags": {"check_date": "2026-02-14", "name": "Le Petit Prince", "name:oc": "Lo Princilhon", "operator": "Tito", "shop": "convenience", "source:name:oc": "ieo-bdtopoc"}}, {"type": "node", "id": 7389418888, "lat": 43.2953478, "lon": 5.3898923, "tags": {"addr:housenumber": "43", "addr:postcode": "13005", "addr:street": "Boulevard Chave", "name": "Au jardin", "opening_hours:signed": "no", "organic": "only", "phone": "+33 9 64 22 04 56", "shop": "convenience", "website": "http://aujardin-marseille.com"}}, {"type": "node", "id": 7394245823, "lat": 43.2951862, "lon": 5.3921313, "tags": {"name": "Fromagerie Chave", "opening_hours": "Tu,Sa 15:00-19:30, We-Su 09:30-13:00, We-Fr 16:00-19:30", "phone": "+334 65 95 36 79", "shop": "cheese"}}, {"type": "node", "id": 7394245825, "lat": 43.2953961, "lon": 5.3958187, "tags": {"name": "L'atelier du mobile", "phone": "+33652236206", "shop": "mobile_phone"}}, {"type": "node", "id": 7463171792, "lat": 43.2925596, "lon": 5.4087397, "tags": {"name": "Le Fournil de Saint Pierre", "shop": "bakery"}}, {"type": "node", "id": 7463171793, "lat": 43.2927739, "lon": 5.4086813, "tags": {"name": "Tic & r\u00e9tro", "shop": "games"}}, {"type": "node", "id": 7463171794, "lat": 43.2929237, "lon": 5.4086783, "tags": {"brand": "Spar", "brand:wikidata": "Q610492", "brand:wikipedia": "en:Spar (retailer)", "name": "Spar", "opening_hours": "Mo-Su 07:00-21:00", "phone": "+33 4 91 47 98 25", "shop": "convenience", "website": "https://magasins.spar.fr/fr/s/spar-marseille-pascal-ruinat"}}, {"type": "node", "id": 7463171795, "lat": 43.2929343, "lon": 5.4090338, "tags": {"name": "Boucherie Saint Pierre", "payment:cash": "yes", "shop": "butcher"}}, {"type": "node", "id": 7699389971, "lat": 43.2881472, "lon": 5.3914433, "tags": {"books": "children", "email": "contact@le-poisson-lune.com", "name": "Le Poisson Lune", "opening_hours": "Tu-Sa 10:00-19:00", "shop": "books", "website": "http://le-poisson-lune.com/"}}, {"type": "node", "id": 7749927819, "lat": 43.298723, "lon": 5.3907015, "tags": {"name": "Alimentation jour & nuit 7/7", "opening_hours": "Mo-Su 00:00-23:59", "shop": "convenience"}}, {"type": "node", "id": 7749927874, "lat": 43.2989992, "lon": 5.3889797, "tags": {"addr:postcode": "13005", "name": "Le four et le moulin", "opening_hours": "Mo-Su 06:30-21:00", "shop": "bakery"}}, {"type": "node", "id": 7755891336, "lat": 43.2956926, "lon": 5.3976306}, {"type": "node", "id": 7755891337, "lat": 43.2957012, "lon": 5.3976307}, {"type": "node", "id": 7755891338, "lat": 43.2956927, "lon": 5.3975839}, {"type": "node", "id": 7755891339, "lat": 43.295702, "lon": 5.3975841}, {"type": "node", "id": 8047413838, "lat": 43.292414, "lon": 5.4015318, "tags": {"name": "La Maison des Obs\u00e8ques", "shop": "funeral_directors"}}, {"type": "node", "id": 8060502823, "lat": 43.2900093, "lon": 5.3996968, "tags": {"check_date:opening_hours": "2023-11-08", "name": "Optique Geoffroy", "opening_hours": "Mo-Sa 09:00-19:00", "shop": "optician"}}, {"type": "node", "id": 8071999795, "lat": 43.2950208, "lon": 5.3978313, "tags": {"name": "Star Destockage", "shop": "wholesale", "wholesale": "supermarket"}}, {"type": "node", "id": 8071999796, "lat": 43.2941428, "lon": 5.3980811, "tags": {"name": "LAM", "opening_hours": "07:00-20:00", "shop": "laundry"}}, {"type": "node", "id": 8071999797, "lat": 43.294296, "lon": 5.3988257, "tags": {"female:signed": "no", "male:signed": "no", "name": "Plein Sud", "shop": "hairdresser"}}, {"type": "node", "id": 8071999800, "lat": 43.2941101, "lon": 5.4001129, "tags": {"name": "Mimi Pinson", "shop": "florist"}}, {"type": "node", "id": 8072021975, "lat": 43.2947889, "lon": 5.3941919, "tags": {"addr:housenumber": "2", "addr:postcode": "13005", "addr:street": "Rue Briffaut", "amenity": "cafe", "cuisine": "teahouse", "name": "Bloomdrops", "shop": "houseware", "website": "https://www.bloomdrops.fr/"}}, {"type": "node", "id": 8078395914, "lat": 43.291905, "lon": 5.3997736, "tags": {"name": "Angelo Coiffure", "shop": "hairdresser", "unisex": "yes"}}, {"type": "node", "id": 8078395915, "lat": 43.2918025, "lon": 5.3997467, "tags": {"name": "Pass-Copie", "shop": "copyshop"}}, {"type": "node", "id": 8100383736, "lat": 43.2929163, "lon": 5.3998031, "tags": {"name": "Olympic Pneus", "shop": "car_repair"}}, {"type": "node", "id": 8100383741, "lat": 43.2900132, "lon": 5.3983949, "tags": {"name": "Terre de Provence", "shop": "convenience"}}, {"type": "node", "id": 8100383742, "lat": 43.2899888, "lon": 5.3983118, "tags": {"name": "Boucherie Baille", "shop": "butcher"}}, {"type": "node", "id": 8100383743, "lat": 43.2925409, "lon": 5.397609, "tags": {"name": "Midi Litterie", "shop": "bed"}}, {"type": "node", "id": 8100383744, "lat": 43.2921827, "lon": 5.3946975, "tags": {"laundry_service": "no", "self_service": "yes", "shop": "laundry"}}, {"type": "node", "id": 8100383758, "lat": 43.2942291, "lon": 5.3992894, "tags": {"name": "Imagin'Hair", "shop": "hairdresser"}}, {"type": "node", "id": 8100383791, "lat": 43.2917244, "lon": 5.3970994, "tags": {"name": "L'alim d'en face", "shop": "convenience"}}, {"type": "node", "id": 8164680689, "lat": 43.2849297, "lon": 5.3936417, "tags": {"name": "Ma Laverie", "opening_hours": "07:00-20:30", "shop": "laundry"}}, {"type": "node", "id": 8164680692, "lat": 43.2848441, "lon": 5.3922439, "tags": {"name": "Alim Pop's", "shop": "convenience"}}, {"type": "node", "id": 8164680693, "lat": 43.2848524, "lon": 5.3926959, "tags": {"name": "AthletiCoiffure", "shop": "hairdresser", "unisex": "yes"}}, {"type": "node", "id": 8164680701, "lat": 43.2851355, "lon": 5.3917531, "tags": {"name": "Provence Pneus", "shop": "tyres"}}, {"type": "node", "id": 8457807346, "lat": 43.2857708, "lon": 5.3946809, "tags": {"addr:housenumber": "15", "contact:phone": "+33 4 91 25 44 26", "email": "contact@pianos-rossignol.com", "name": "Atelier Piano Rossignol", "note": "ouvert sur rdv (opened only for appointments)", "opening_hours": "\"Ouvert sur rendez-vous\"", "shop": "furniture", "website": "https://pianos-rossignol.com/"}}, {"type": "node", "id": 8736460277, "lat": 43.2949339, "lon": 5.4004736, "tags": {"male": "yes", "name": "Magicoiffe", "shop": "hairdresser", "wheelchair": "no"}}, {"type": "node", "id": 8736460280, "lat": 43.2940339, "lon": 5.4011247}, {"type": "node", "id": 8736460281, "lat": 43.29403, "lon": 5.4010925}, {"type": "node", "id": 8736460282, "lat": 43.2940315, "lon": 5.4010624}, {"type": "node", "id": 8736460283, "lat": 43.294051, "lon": 5.4009423}, {"type": "node", "id": 8736460284, "lat": 43.2941154, "lon": 5.4005226}, {"type": "node", "id": 8736460285, "lat": 43.2942001, "lon": 5.4004818}, {"type": "node", "id": 8736460286, "lat": 43.2942679, "lon": 5.4011131}, {"type": "node", "id": 8736460287, "lat": 43.2946025, "lon": 5.400768, "tags": {"name": "Fleurs des Calanques", "shop": "florist"}}, {"type": "node", "id": 8736467922, "lat": 43.294152, "lon": 5.4011529, "tags": {"barrier": "gate"}}, {"type": "node", "id": 8736467928, "lat": 43.2941333, "lon": 5.4012037}, {"type": "node", "id": 8736467929, "lat": 43.2941672, "lon": 5.4011119}, {"type": "node", "id": 8736467930, "lat": 43.2942354, "lon": 5.4011249}, {"type": "node", "id": 8754012674, "lat": 43.2993338, "lon": 5.3953911, "tags": {"name": "Shaynis Glamm - \u00c9cole de beaut\u00e9", "shop": "beauty"}}, {"type": "node", "id": 8844835702, "lat": 43.2953778, "lon": 5.3862076}, {"type": "node", "id": 8844835703, "lat": 43.2953656, "lon": 5.386251}, {"type": "node", "id": 8844835704, "lat": 43.2954083, "lon": 5.3862722}, {"type": "node", "id": 8844835705, "lat": 43.2954203, "lon": 5.3862299}, {"type": "node", "id": 8844835706, "lat": 43.2947908, "lon": 5.38591}, {"type": "node", "id": 8844835707, "lat": 43.294778, "lon": 5.3859571}, {"type": "node", "id": 8844835708, "lat": 43.2948176, "lon": 5.3859766}, {"type": "node", "id": 8844835709, "lat": 43.2948308, "lon": 5.3859303}, {"type": "node", "id": 8848994581, "lat": 43.2955225, "lon": 5.3862791}, {"type": "node", "id": 8848994582, "lat": 43.2955109, "lon": 5.3863231}, {"type": "node", "id": 8848994583, "lat": 43.2955522, "lon": 5.3863436}, {"type": "node", "id": 8848994584, "lat": 43.2955638, "lon": 5.3862998}, {"type": "node", "id": 8943334674, "lat": 43.2936968, "lon": 5.3943345, "tags": {"addr:city": "Marseille", "addr:housenumber": "37", "addr:street": "Rue Goudard", "contact:facebook": "https://www.facebook.com/VeloAzur/", "name": "V\u00e9lo Azur", "phone": "+33 7 50 08 72 63", "service:bicycle:repair": "yes", "shop": "bicycle"}}, {"type": "node", "id": 9051724726, "lat": 43.2852013, "lon": 5.3914888, "tags": {"name": "Market Gouff\u00e9", "opening_hours": "Mo-Su 10:00-07:00", "shop": "supermarket"}}, {"type": "node", "id": 9149293490, "lat": 43.2921368, "lon": 5.4035658, "tags": {"addr:housenumber": "62", "level": "0", "name": "D\u00e9co stock", "phone": "+33495057229", "shop": "interior_decoration", "wheelchair": "yes"}}, {"type": "node", "id": 9306759815, "lat": 43.2878207, "lon": 5.4000892, "tags": {"brand": "Lexus", "brand:wikidata": "Q35919", "name": "Lexus Marseille", "opening_hours": "Mo-Fr 08:00-12:00,14:00-19:00; Sa 09:00-12:00,14:00-18:00", "shop": "car"}}, {"type": "node", "id": 9440170585, "lat": 43.2886618, "lon": 5.3926668, "tags": {"addr:housenumber": "75", "name": "Prisme Tattoo", "opening_hours": "We,Sa 12:00-19:00", "phone": "+33 9 87 00 78 60", "shop": "tattoo", "website": "https://www.prismetattoo.com/"}}, {"type": "node", "id": 9540425812, "lat": 43.2862082, "lon": 5.3917726, "tags": {"name": "Upside", "shop": "motorcycle_repair"}}, {"type": "node", "id": 9860885318, "lat": 43.2875479, "lon": 5.3904266, "tags": {"brand": "Carrefour City", "brand:wikidata": "Q2940187", "name": "Carrefour City", "opening_hours": "Mo-Sa 07:00-22:00; Su 08:00-21:00", "phone": "+33 4 91 25 70 45", "ref:FR:SIRET": "90020247400012", "shop": "convenience", "website": "https://www.carrefour.fr/magasin/city-marseille-baille"}}, {"type": "node", "id": 9928832834, "lat": 43.2954481, "lon": 5.3921541, "tags": {"addr:housenumber": "81", "addr:street": "Boulevard Chave", "name": "1001 Herbes CBD Shop", "phone": "+33 9 84 20 93 40", "shop": "cannabis"}}, {"type": "node", "id": 9928832836, "lat": 43.2953849, "lon": 5.3911014, "tags": {"addr:housenumber": "65", "addr:street": "Boulevard Chave", "female": "yes", "male": "yes", "name": "Mavro Coiffure", "phone": "+33 4 91 92 86 90", "shop": "hairdresser"}}, {"type": "node", "id": 9928832837, "lat": 43.2953886, "lon": 5.3911969, "tags": {"name": "Jupiters", "shop": "florist"}}, {"type": "node", "id": 9928832838, "lat": 43.2953609, "lon": 5.3901485, "tags": {"check_date:opening_hours": "2023-08-25", "contact:housenumber": "49", "name": "Bleu Velours", "opening_hours:signed": "no", "shop": "antiques"}}, {"type": "node", "id": 9928878749, "lat": 43.2950852, "lon": 5.3905337, "tags": {"addr:housenumber": "64", "addr:street": "Boulevard Chave", "female": "yes", "male": "yes", "name": "MissTiffs", "opening_hours": "Tu,We,Fr,Sa 08:00-17:00", "shop": "hairdresser"}}, {"type": "node", "id": 9928878750, "lat": 43.2950775, "lon": 5.3904399, "tags": {"addr:housenumber": "62", "addr:street": "Boulevard Chave", "brand": "Amplifon", "brand:wikidata": "Q477222", "name": "Amplifon", "phone": "+33 4 91 42 13 28", "shop": "hearing_aids", "website": "https://www.amplifon.com/fr/nous-trouver/audioprothesiste-marseille/amplifon-marseille-chave-s878"}}, {"type": "node", "id": 9928878752, "lat": 43.295071, "lon": 5.3902824, "tags": {"description": "Soci\u00e9t\u00e9 de Maintenance en B\u00e2timent", "name": "Somainbat", "office": "construction", "shop": "yes"}}, {"type": "node", "id": 9928878754, "lat": 43.2950388, "lon": 5.3896613, "tags": {"addr:housenumber": "44", "addr:street": "Boulevard Chave", "name": "Contrast", "shop": "hairdresser"}}, {"type": "node", "id": 9928878756, "lat": 43.2943929, "lon": 5.3891173, "tags": {"addr:housenumber": "45", "addr:street": "Rue de Bruys", "name": "Atelier Ziggy", "shop": "yes", "survey:date": "2025-06-21"}}, {"type": "node", "id": 9928878757, "lat": 43.293849, "lon": 5.3888259, "tags": {"name": "Akou.", "shop": "garden_centre"}}, {"type": "node", "id": 10031318583, "lat": 43.2880308, "lon": 5.3945025, "tags": {"check_date": "2022-09-17", "name": "Rhum en nou !", "opening_hours": "Mo-Fr 09:00-16:00; Sa 09:00-13:00; Su off", "shop": "convenience"}}, {"type": "node", "id": 10846342317, "lat": 43.2954991, "lon": 5.3874931, "tags": {"male": "yes", "name": "Coiffure Jocelyn", "shop": "hairdresser"}}, {"type": "node", "id": 11128417701, "lat": 43.2960358, "lon": 5.3909105, "tags": {"air_conditioning": "yes", "contact:housenumber": "67", "currency:EUR": "yes", "level": "0", "name": "Trois Petits Points", "opening_hours": "Mo-Sa 09:00-20:00", "operator": "C\u00e9cile Boissimon", "payment:cash": "yes", "payment:cheque": "yes", "phone": "+33 6 61 63 14 37", "shop": "massage", "start_date": "2018-01-01", "toilets": "yes", "website": "https://www.trois-petits-points.com/"}}, {"type": "node", "id": 11217370637, "lat": 43.2875324, "lon": 5.399954, "tags": {"contact:city": "Marseille 5eme Arrondissement", "contact:housenumber": "36", "contact:postcode": "13005", "contact:street": "Boulevard Jean Moulin", "shop": "vacant"}}, {"type": "node", "id": 11227613441, "lat": 43.2959822, "lon": 5.4058182, "tags": {"shop": "bakery"}}, {"type": "node", "id": 11228717054, "lat": 43.3001487, "lon": 5.388891, "tags": {"name": "Chez Romain et Marion", "shop": "convenience", "wheelchair": "no"}}, {"type": "node", "id": 12144142204, "lat": 43.2961828, "lon": 5.3909072, "tags": {"name": "Abri du pass\u00e9", "ref:FR:SIRET": "39809874900011", "shop": "antiques", "source": "INSEE - 2024-03"}}, {"type": "node", "id": 12155653914, "lat": 43.2986748, "lon": 5.3895562, "tags": {"male": "yes", "name": "Bk", "opening_hours": "Tu-Sa 09:00-19:00", "shop": "hairdresser"}}, {"type": "node", "id": 12199413906, "lat": 43.2929422, "lon": 5.4091737, "tags": {"name": "BKH Optique", "ref:FR:SIRET": "90855800000018", "shop": "optician", "source": "INSEE - 2024-03"}}, {"type": "node", "id": 12199413907, "lat": 43.292939, "lon": 5.4090966, "tags": {"name": "C\u00f4t\u00e9 sud", "ref:FR:SIRET": "82962069900019", "shop": "hairdresser", "source": "INSEE - 2024-03"}}, {"type": "node", "id": 12199413977, "lat": 43.2943653, "lon": 5.4064007, "tags": {"name": "Remorquage Henri", "ref:FR:SIRET": "37960314500051", "shop": "car_repair", "source": "INSEE - 2024-03"}}, {"type": "node", "id": 12201233959, "lat": 43.2936376, "lon": 5.4026167, "tags": {"name": "Chez Rudy", "opening_hours": "Tu-Su 07:30-13:00, Tu 16:00-19:30, Th-Sa 16:00-19:30", "shop": "butcher"}}, {"type": "node", "id": 12201233960, "lat": 43.2936235, "lon": 5.4027146, "tags": {"female:signed": "no", "male:signed": "no", "name": "Francesca", "opening_hours": "Tu-Sa 09:00-18:30", "shop": "hairdresser"}}, {"type": "node", "id": 12201233961, "lat": 43.2936088, "lon": 5.4027971, "tags": {"name": "Les jardins du soleil", "shop": "greengrocer"}}, {"type": "node", "id": 12201233964, "lat": 43.2935019, "lon": 5.4034978, "tags": {"laundry_service": "no", "name": "Laverie 7/7", "opening_hours": "Mo-Su,PH 06:00-20:30", "self_service": "yes", "shop": "laundry"}}, {"type": "node", "id": 12205156160, "lat": 43.292537, "lon": 5.4083573, "tags": {"female": "yes", "male": "yes", "name": "MC Coiffure", "shop": "hairdresser"}}, {"type": "node", "id": 12299660366, "lat": 43.2993306, "lon": 5.3953164, "tags": {"name": "MC Coiffure", "ref:FR:SIRET": "84753473200015", "shop": "hairdresser", "source": "INSEE - 2024-03"}}, {"type": "node", "id": 12304778866, "lat": 43.2962661, "lon": 5.3976856, "tags": {"email": "contact@pompes-funebres-lostfuneraire.fr", "name": "Lost Fun\u00e9raire", "phone": "+334 84 89 16 47", "ref:FR:SIRET": "81285926200014", "shop": "funeral_directors", "source": "INSEE - 2024-03", "website": "https://www.pompes-funebres-lostfuneraire.fr/"}}, {"type": "node", "id": 12423111701, "lat": 43.29561, "lon": 5.3950257, "tags": {"addr:housenumber": "139", "addr:postcode": "13005", "addr:street": "Boulevard Chave", "name": "La source", "shop": "wine"}}, {"type": "node", "id": 12609730277, "lat": 43.2853736, "lon": 5.3947927, "tags": {"description": "\u00e9picerie fine de produits polonais", "name": "Delicepol", "opening_hours": "Tu-Sa 10:00-12:30, 13:30-18:30", "shop": "deli"}}, {"type": "node", "id": 12618244665, "lat": 43.2854363, "lon": 5.3951757, "tags": {"name": "Zeahighland", "shop": "cannabis"}}, {"type": "node", "id": 12806251327, "lat": 43.2948808, "lon": 5.3872074, "tags": {"name": "Vaporissima", "shop": "e-cigarette"}}, {"type": "node", "id": 12806270308, "lat": 43.295262, "lon": 5.3873761, "tags": {"name": "Chez Jo", "shop": "convenience"}}, {"type": "node", "id": 12919144415, "lat": 43.296219, "lon": 5.4004437, "tags": {"name": "Maison sucr\u00e9e sal\u00e9e", "shop": "bakery"}}, {"type": "node", "id": 13188680603, "lat": 43.295447, "lon": 5.3921531, "tags": {"addr:housenumber": "81", "addr:postcode": "13005", "addr:street": "Boulevard Chave", "internet_access": "wlan", "level": "0", "name": "Aku", "opening_hours": "Mo-Sa 11:00-19:00", "shop": "pastry"}}, {"type": "way", "id": 68962830, "nodes": [827949022, 827870372, 827931055, 828027894, 827949022], "tags": {"addr:city": "Marseille", "addr:housenumber": "60", "building": "yes", "name": "Mr D\u00e9capage", "opening_hours": "Mo-Sa 08:00-12:00; Mo-Fr 14:00-18:00", "phone": "+33 4 91 92 50 77", "shop": "trade", "source": "cadastre-dgi-fr source : Direction G\u00e9n\u00e9rale des Imp\u00f4ts - Cadastre. Mise \u00e0 jour : 2010", "trade": "wood"}}, {"type": "way", "id": 68967543, "nodes": [827968064, 827913517, 827961172, 827962399, 827968064], "tags": {"building": "yes", "name": "Spidi Roses", "shop": "florist", "source": "cadastre-dgi-fr source : Direction G\u00e9n\u00e9rale des Imp\u00f4ts - Cadastre. Mise \u00e0 jour : 2010"}}, {"type": "way", "id": 68981184, "nodes": [827912116, 7755891339, 7755891338, 827992924, 827890840, 7755891336, 7755891337, 827991339, 827912116], "tags": {"building": "kiosk", "name": "Fleurs de web", "opening_hours": "Tu-Sa 10:00-13:00,16:00-19:30; Su,PH 10:00-13:00; Mo 16:00-19:30", "shop": "florist"}}, {"type": "way", "id": 126441087, "nodes": [1401579158, 1401579152, 3923217301, 3923217302, 1401579108, 1401579079, 1401579158], "tags": {"building": "yes", "shop": "kiosk"}}, {"type": "way", "id": 943562561, "nodes": [8736467930, 8736460286, 8736460285, 827990786, 8736460284, 8736460283, 8736460282, 8736460281, 8736460280, 827936280, 827998059, 8736467928, 8736467922, 8736467929, 8736467930], "tags": {"amenity": "car_rental", "branch": "Sakakini", "brand": "ADA", "brand:wikidata": "Q57313774", "landuse": "retail", "name": "ADA", "rental": "car", "shop": "rental"}}, {"type": "way", "id": 955681182, "nodes": [8844835705, 8844835704, 8844835703, 8844835702, 8844835705], "tags": {"building": "kiosk", "shop": "kiosk"}}, {"type": "way", "id": 955681183, "nodes": [8844835709, 8844835708, 8844835707, 8844835706, 8844835709], "tags": {"building": "kiosk", "name": "La Sir\u00e8ne", "shop": "seafood", "wheelchair": "yes"}}, {"type": "way", "id": 956127762, "nodes": [8848994584, 8848994583, 8848994582, 8848994581, 8848994584], "tags": {"building": "kiosk", "name": "Poissonnerie Gavottine", "shop": "seafood", "wheelchair": "yes"}}]}