{"version": 0.6, "generator": "Overpass API 0.7.62.11 87bfad18", "osm3s": {"timestamp_osm_base": "2026-03-24T09:59:45Z", "copyright": "The data included in this document is from www.openstreetmap.org. The data is made available under ODbL."}, "elements": [{"type": "node", "id": 344200758, "lat": 43.2926541, "lon": 5.4156008}, {"type": "node", "id": 344200759, "lat": 43.2925141, "lon": 5.4155316}, {"type": "node", "id": 344200760, "lat": 43.2925471, "lon": 5.4149601}, {"type": "node", "id": 1703096064, "lat": 43.296836, "lon": 5.444237}, {"type": "node", "id": 1703096111, "lat": 43.29684, "lon": 5.444262}, {"type": "node", "id": 1703096119, "lat": 43.296841, "lon": 5.44419}, {"type": "node", "id": 1703096159, "lat": 43.296847, "lon": 5.444294}, {"type": "node", "id": 1703096209, "lat": 43.296857, "lon": 5.444322}, {"type": "node", "id": 1703096289, "lat": 43.296865, "lon": 5.444405}, {"type": "node", "id": 1703096297, "lat": 43.296867, "lon": 5.44411}, {"type": "node", "id": 1703096387, "lat": 43.296882, "lon": 5.444145}, {"type": "node", "id": 1703096391, "lat": 43.296885, "lon": 5.444383}, {"type": "node", "id": 1703096550, "lat": 43.296911, "lon": 5.444064}, {"type": "node", "id": 1703096567, "lat": 43.296914, "lon": 5.444499}, {"type": "node", "id": 1703096614, "lat": 43.296932, "lon": 5.444101}, {"type": "node", "id": 1703096685, "lat": 43.296962, "lon": 5.444072}, {"type": "node", "id": 1703096868, "lat": 43.297009, "lon": 5.444245}, {"type": "node", "id": 1703096930, "lat": 43.297024, "lon": 5.444273}, {"type": "node", "id": 1703096998, "lat": 43.297037, "lon": 5.444215}, {"type": "node", "id": 1703097284, "lat": 43.297087, "lon": 5.444212}, {"type": "node", "id": 1703097302, "lat": 43.297094, "lon": 5.444228}, {"type": "node", "id": 1703097343, "lat": 43.297105, "lon": 5.444217}, {"type": "node", "id": 1703097457, "lat": 43.297136, "lon": 5.444275}, {"type": "node", "id": 1703098158, "lat": 43.2971936, "lon": 5.4255188}, {"type": "node", "id": 1703098342, "lat": 43.2972256, "lon": 5.4257898}, {"type": "node", "id": 1703098952, "lat": 43.2974046, "lon": 5.4254698}, {"type": "node", "id": 1703099136, "lat": 43.2974426, "lon": 5.4255078}, {"type": "node", "id": 1703099345, "lat": 43.2974706, "lon": 5.4257338}, {"type": "node", "id": 1703099924, "lat": 43.2975118, "lon": 5.4254642}, {"type": "node", "id": 1703100159, "lat": 43.2975906, "lon": 5.4256965}, {"type": "node", "id": 1703101219, "lat": 43.2977926, "lon": 5.4253995}, {"type": "node", "id": 1703101290, "lat": 43.2978026, "lon": 5.4254835}, {"type": "node", "id": 1703101297, "lat": 43.2978046, "lon": 5.4255045}, {"type": "node", "id": 1703101410, "lat": 43.2978316, "lon": 5.4254975}, {"type": "node", "id": 1703101411, "lat": 43.2978326, "lon": 5.4255015}, {"type": "node", "id": 1703101610, "lat": 43.2978676, "lon": 5.4256335}, {"type": "node", "id": 1703282994, "lat": 43.306751, "lon": 5.420498}, {"type": "node", "id": 1703283615, "lat": 43.306779, "lon": 5.420239}, {"type": "node", "id": 1703292869, "lat": 43.307068, "lon": 5.420294}, {"type": "node", "id": 1703293358, "lat": 43.307095, "lon": 5.420213}, {"type": "node", "id": 1703293393, "lat": 43.307098, "lon": 5.4203}, {"type": "node", "id": 1703293513, "lat": 43.307106, "lon": 5.420119}, {"type": "node", "id": 1703293555, "lat": 43.307108, "lon": 5.420215}, {"type": "node", "id": 1703293690, "lat": 43.307122, "lon": 5.420571}, {"type": "node", "id": 1703293695, "lat": 43.307123, "lon": 5.420561}, {"type": "node", "id": 1703294177, "lat": 43.30714, "lon": 5.420126}, {"type": "node", "id": 1703295928, "lat": 43.307217, "lon": 5.420304}, {"type": "node", "id": 1703296004, "lat": 43.307224, "lon": 5.420239}, {"type": "node", "id": 1703296825, "lat": 43.307273, "lon": 5.420247}, {"type": "node", "id": 1703297035, "lat": 43.307281, "lon": 5.420185}, {"type": "node", "id": 1703297162, "lat": 43.307288, "lon": 5.420187}, {"type": "node", "id": 1703297332, "lat": 43.307292, "lon": 5.420157}, {"type": "node", "id": 1703301329, "lat": 43.307542, "lon": 5.42064}, {"type": "node", "id": 1703301699, "lat": 43.307571, "lon": 5.420374}, {"type": "node", "id": 1950652933, "lat": 43.3045337, "lon": 5.4720394}, {"type": "node", "id": 1950652940, "lat": 43.304969, "lon": 5.4730527}, {"type": "node", "id": 1950652946, "lat": 43.3056209, "lon": 5.4706412}, {"type": "node", "id": 1950652952, "lat": 43.3059341, "lon": 5.4714997}, {"type": "node", "id": 3253845093, "lat": 43.3047678, "lon": 5.471824}, {"type": "node", "id": 3767138760, "lat": 43.3181262, "lon": 5.423466, "tags": {"addr:city": "Marseille", "addr:country": "FR", "addr:housenumber": "418", "addr:postcode": "13012", "addr:street": "Avenue de Montolivet", "branch": "Agence Immobili\u00e8re Du Village Marseille 12Eme", "brand": "Orpi", "brand:wikidata": "Q3356080", "contact:city": "Marseille 12eme Arrondissement", "contact:housenumber": "418", "contact:phone": "+33 4 91 06 02 00", "contact:postcode": "13012", "contact:street": "Avenue De Montolivet", "name": "Orpi", "office": "estate_agent", "official_name": "Orpi Agence Du Village Immo Marseille 12Eme", "opening_hours": "Mo-Fr 09:00-12:00, 14:00-19:00; Sa 09:30-12:30", "website": "https://www.orpi.com/agenceduvillage"}}, {"type": "node", "id": 4235770108, "lat": 43.2918611, "lon": 5.4149167}, {"type": "node", "id": 4235770915, "lat": 43.2915669, "lon": 5.4166512}, {"type": "node", "id": 4235770916, "lat": 43.2915814, "lon": 5.4169171}, {"type": "node", "id": 4235770918, "lat": 43.2916652, "lon": 5.4170322}, {"type": "node", "id": 4235770922, "lat": 43.2917323, "lon": 5.4170692}, {"type": "node", "id": 4235770935, "lat": 43.292069, "lon": 5.4149096}, {"type": "node", "id": 4235771298, "lat": 43.2915553, "lon": 5.4167522}, {"type": "node", "id": 4235771306, "lat": 43.2920071, "lon": 5.4149116, "tags": {"barrier": "gate"}}, {"type": "node", "id": 4235771324, "lat": 43.2929776, "lon": 5.417535}, {"type": "node", "id": 4235771327, "lat": 43.2934497, "lon": 5.4156212}, {"type": "node", "id": 4864069321, "lat": 43.3121895, "lon": 5.4652672, "tags": {"addr:housenumber": "2", "branch": "Alliance Immo", "brand": "Orpi", "brand:wikidata": "Q3356080", "brand:wikipedia": "fr:Organisation r\u00e9gionale des professionnels de l'immobilier", "contact:city": "Marseille 12eme Arrondissement", "contact:housenumber": "2", "contact:phone": "+33 4 91 52 22 22", "contact:postcode": "13012", "contact:street": "Route Des 3 Lucs \u00c0 La Valentine", "name": "Orpi", "office": "estate_agent", "official_name": "Orpi Alliance Immo Marseille 12Eme", "opening_hours": "Mo-Fr 09:00-12:00, 14:00-18:00", "ref:FR:SIRET": "82400043400012", "website": "https://www.orpi.com/allianceimmo"}}, {"type": "node", "id": 5437798121, "lat": 43.2992215, "lon": 5.4369795, "tags": {"brand": "Orpi", "brand:wikidata": "Q3356080", "contact:city": "Marseille 12eme Arrondissement", "contact:housenumber": "23", "contact:phone": "+33 4 91 87 50 09", "contact:postcode": "13012", "contact:street": "All\u00e9e De La Grande Bastide Cazaulx", "name": "Orpi Agence Immobili\u00e8re Des 3 Bastides Marseille", "office": "estate_agent", "official_name": "Orpi Agence Des 3 Bastides Immo Marseille 12Eme", "opening_hours": "Mo-Fr 09:15-12:00, 14:00-19:00; Sa 09:15-12:00, 14:00-17:00", "website": "https://www.orpi.com/agencedes3bastides/"}}, {"type": "node", "id": 6265871033, "lat": 43.2973944, "lon": 5.4257512}, {"type": "node", "id": 6265871034, "lat": 43.2975326, "lon": 5.4256233}, {"type": "node", "id": 6265871035, "lat": 43.2975802, "lon": 5.4256109}, {"type": "node", "id": 6482341186, "lat": 43.2920714, "lon": 5.4149367}, {"type": "node", "id": 6482341189, "lat": 43.291618, "lon": 5.4169806}, {"type": "node", "id": 6482341190, "lat": 43.2915614, "lon": 5.4168351}, {"type": "node", "id": 6531992384, "lat": 43.3069571, "lon": 5.4202729}, {"type": "node", "id": 6615133864, "lat": 43.3105768, "lon": 5.4263916}, {"type": "node", "id": 6615133865, "lat": 43.3105651, "lon": 5.4264372}, {"type": "node", "id": 6615133866, "lat": 43.3100382, "lon": 5.4269267}, {"type": "node", "id": 6615133867, "lat": 43.3096176, "lon": 5.4265526}, {"type": "node", "id": 6615133868, "lat": 43.3096273, "lon": 5.4264721}, {"type": "node", "id": 6615133869, "lat": 43.3094956, "lon": 5.426448}, {"type": "node", "id": 6615133870, "lat": 43.309161, "lon": 5.4261535}, {"type": "node", "id": 6615133871, "lat": 43.3092307, "lon": 5.4251763}, {"type": "node", "id": 6615133872, "lat": 43.309596, "lon": 5.4251997}, {"type": "node", "id": 6615133873, "lat": 43.3101686, "lon": 5.4255464}, {"type": "node", "id": 6615133874, "lat": 43.3101499, "lon": 5.4256503}, {"type": "node", "id": 6615133875, "lat": 43.3101389, "lon": 5.4259083}, {"type": "node", "id": 6627597580, "lat": 43.3080737, "lon": 5.4354013, "tags": {"name": "Matmut", "office": "insurance", "operator": "Matmut", "survey:date": "2019-05-30"}}, {"type": "node", "id": 7066478285, "lat": 43.3044416, "lon": 5.4139817, "tags": {"brand": "Lafor\u00eat", "brand:wikidata": "Q56310946", "brand:wikipedia": "fr:Lafor\u00eat (immobilier)", "contact:city": "Marseille 12eme Arrondissement", "contact:housenumber": "3", "contact:phone": "+33 4 95 08 00 04", "contact:postcode": "13012", "contact:street": "Avenue de Saint-Julien", "name": "Lafor\u00eat", "office": "estate_agent", "opening_hours": "Mo-Fr 09:00-18:30; Sa 09:00-12:30", "website": "https://www.laforet.com/marseille12stbarnabe"}}, {"type": "node", "id": 8601906885, "lat": 43.2996844, "lon": 5.4401495, "tags": {"name": "ICF Habitat", "office": "property_management", "operator": "SNCF Immobilier"}}, {"type": "node", "id": 10080318674, "lat": 43.3203248, "lon": 5.4328492, "tags": {"name": "Alex' Immo", "office": "estate_agent", "website": "https://www.aleximmo.fr/"}}, {"type": "node", "id": 10101429409, "lat": 43.3211004, "lon": 5.4338054, "tags": {"addr:place": "Groupe Scolaire Bois Lema\u00eetre", "admin_level": "8", "government": "public_service", "name": "Service de maintenance des piscines", "office": "government", "operator": "Ville de Marseille"}}, {"type": "node", "id": 10889226684, "lat": 43.3044749, "lon": 5.4230172, "tags": {"addr:city": "Marseille", "addr:housenumber": "23", "addr:postcode": "13012", "addr:street": "Avenue des Caillols", "name": "Active Diag13", "office": "company", "opening_hours": "Lun - Sam: 8:30 - 22:00"}}, {"type": "node", "id": 10929261905, "lat": 43.304381, "lon": 5.4132174, "tags": {"contact:city": "Marseille 12eme Arrondissement", "contact:housenumber": "67", "contact:phone": "+33 4 86 76 76 76", "contact:postcode": "13012", "contact:street": "Avenue De Saint-Barnab\u00e9", "name": "Cafpi ", "office": "financial", "opening_hours": "Mo-Th 09:00-19:00; Fr 08:30-12:00, 13:30-17:00", "website": "https://www.cafpi.fr/agences/courtier-marseille-12"}}, {"type": "node", "id": 11716927578, "lat": 43.3180685, "lon": 5.4242161, "tags": {"addr:city": "Marseille", "addr:housenumber": "4", "addr:postcode": "13012", "addr:street": "Boulevard Bigonnet", "email": "montolivet@terrasse-en-ville.com", "name": "Terrasse en ville immobilier 12e", "office": "estate_agent", "opening_hours": "Mo-Su 09:30-19:00", "phone": "+334 88 60 16 05", "website": "https://www.terrasse-en-ville.com/marseille1"}}, {"type": "node", "id": 12675826952, "lat": 43.3063298, "lon": 5.4567786, "tags": {"contact:email": "contact@regard2drone.tech", "name": "REGARD2DRONE", "office": "company", "operator": "Bruno Gabaude", "phone": "+33629176235", "ref:FR:SIRET": "90091621400019", "website": "https://www.regard2drone.tech"}}, {"type": "way", "id": 158106166, "nodes": [1703292869, 6531992384, 1703283615, 1703282994, 1703293690, 1703293695, 1703301329, 1703301699, 1703295928, 1703296004, 1703296825, 1703297035, 1703297162, 1703297332, 1703294177, 1703293513, 1703293358, 1703293555, 1703293393, 1703292869], "tags": {"government": "tax", "name": "Tr\u00e9sorerie Marseille Hospitali\u00e8re", "office": "government", "source": "Service-Public.fr - 08/2018"}}, {"type": "way", "id": 158106460, "nodes": [1703096289, 1703096567, 1703097457, 1703097343, 1703097302, 1703097284, 1703096930, 1703096868, 1703096998, 1703096685, 1703096614, 1703096550, 1703096297, 1703096387, 1703096119, 1703096064, 1703096111, 1703096159, 1703096209, 1703096391, 1703096289], "tags": {"building": "yes", "government": "healthcare", "name": "CRPF - S\u00e9curit\u00e9 sociale", "office": "government", "source": "cadastre-dgi-fr source : Direction G\u00e9n\u00e9rale des Imp\u00f4ts - Cadastre. Mise \u00e0 jour : 2012"}}, {"type": "way", "id": 158134888, "nodes": [1703098952, 1703098158, 1703098342, 6265871033, 1703099345, 1703099136, 1703098952], "tags": {"building": "yes", "contact:housenumber": "35", "contact:street": "Rue Louis Reybaud", "industrial": "machine_shop", "name": "D\u00e9coupage Emboutissage Injection M\u00e9diterran\u00e9enne", "short_name": "DEIM", "source": "cadastre-dgi-fr source : Direction G\u00e9n\u00e9rale des Imp\u00f4ts - Cadastre. Mise \u00e0 jour : 2012"}}, {"type": "way", "id": 158151300, "nodes": [1703101219, 1703099924, 6265871034, 6265871035, 1703100159, 1703101610, 1703101411, 1703101410, 1703101297, 1703101290, 1703101219], "tags": {"building": "yes", "contact:housenumber": "37", "contact:street": "Rue Louis Reybaud", "industrial": "machine_shop", "name": "Sautel Etude & Realisation Moules & Outillages", "short_name": "SERMO", "source": "cadastre-dgi-fr source : Direction G\u00e9n\u00e9rale des Imp\u00f4ts - Cadastre. Mise \u00e0 jour : 2012", "website": "http://sermo13.fr/"}}, {"type": "way", "id": 432625986, "nodes": [344200760, 344200759, 344200758, 4235771327, 4235771324, 4235770922, 4235770918, 6482341189, 4235770916, 6482341190, 4235771298, 4235770915, 4235770108, 4235771306, 4235770935, 6482341186, 344200760], "tags": {"depot": "tram", "industrial": "depot", "is_in": "ZAE Saint-PIerre", "landuse": "industrial", "name": "D\u00e9p\u00f4t Saint-Pierre - Tramway", "name:oc": "Depaus de Sant P\u00e8ire", "operator": "R\u00e9gie des Transports M\u00e9tropolitains", "source:name:oc": "ieo-bdtopoc"}}, {"type": "way", "id": 691639771, "nodes": [1950652940, 1950652933, 3253845093, 1950652946, 1950652952, 1950652940], "tags": {"fixme:name": "Avenue des Peintres Roux", "industrial": "concrete_plant", "landuse": "industrial", "name": "Lafarge b\u00e9ton", "name:oc": "Lafarga betum", "source:name:oc": "ieo-bdtopoc"}}, {"type": "way", "id": 704400444, "nodes": [6615133864, 6615133865, 6615133866, 6615133867, 6615133868, 6615133869, 6615133870, 6615133871, 6615133872, 6615133873, 6615133874, 6615133875, 6615133864], "tags": {"industrial": "water", "landuse": "industrial", "name": "Service des eaux de Marseille", "name:oc": "Servici deis Aigas de Marselha", "source:name:oc": "ieo-bdtopoc"}}]}