{"version": 0.6, "generator": "Overpass API 0.7.62.11 87bfad18", "osm3s": {"timestamp_osm_base": "2026-03-24T09:15:44Z", "copyright": "The data included in this document is from www.openstreetmap.org. The data is made available under ODbL."}, "elements": [{"type": "node", "id": 1359939707, "lat": 43.2935108, "lon": 5.363787}, {"type": "node", "id": 1359939712, "lat": 43.293505, "lon": 5.36365}, {"type": "node", "id": 1359939725, "lat": 43.2936203, "lon": 5.3636409}, {"type": "node", "id": 1359939728, "lat": 43.2936261, "lon": 5.3637778}, {"type": "node", "id": 1998953938, "lat": 43.2923417, "lon": 5.3693714, "tags": {"addr:city": "Marseille", "addr:housenumber": "18", "name": "Conseil d'Architecture, d'Urbanisme et de l'Environnement des Bouches-du-Rh\u00f4ne", "office": "government", "short_name": "CAUE13", "website": "http://www.caue13.com/"}}, {"type": "node", "id": 3484433093, "lat": 43.2905362, "lon": 5.371249, "tags": {"contact:phone": "+33 9 81 22 58 84", "name": "Adomis Marseille", "office": "company", "opening_hours": "Mo-Fr 09:30-17:00", "website": "https://adomis-marseille-sud.com/"}}, {"type": "node", "id": 5496522612, "lat": 43.2815222, "lon": 5.3739112, "tags": {"addr:city": "Marseille", "addr:housenumber": "4", "consulate": "honorary_consul", "contact:email": "marseille@honorary.mzv.cz", "contact:phone": "+33 9 63 40 16 77", "country": "CZ", "diplomatic": "consulate", "name": "Consulat honoraire de R\u00e9publique tch\u00e8que", "name:cs": "Honor\u00e1rn\u00ed konzul\u00e1t \u010cesk\u00e9 republiky", "name:en": "Honorary Consulate of the Czech Republic", "office": "diplomatic", "opening_hours": "Mo 09:00-13:00", "target": "FR", "website": "https://www.mzv.cz/jnp/cz/o_ministerstvu/adresar_diplomatickych_misi/ceske_urady_v_zahranici/francie_honorarni_konzulat_marseille.html"}}, {"type": "node", "id": 5930221611, "lat": 43.2928785, "lon": 5.3699822, "tags": {"name": "Soci\u00e9t\u00e9 Nautique de Marseille", "name:oc": "Societat Nautica de Marselha", "office": "association", "source:name:oc": "ieo-bdtopoc"}}, {"type": "node", "id": 6627067285, "lat": 43.2898475, "lon": 5.3722385, "tags": {"addr:housenumber": "87", "consulate": "yes", "country": "CM", "diplomatic": "consulate", "email": "contact@consulacam-marseille.fr", "name": "Consulat du Cameroun", "office": "diplomatic", "opening_hours": "Mo-Fr 10:00-16:30", "phone": "+33 4 91 37 10 65", "target": "FR", "website": "https://www.consulacam-marseille.fr", "wheelchair": "no"}}, {"type": "node", "id": 7052470486, "lat": 43.284549, "lon": 5.3590881, "tags": {"brand": "Lafor\u00eat", "brand:wikidata": "Q56310946", "brand:wikipedia": "fr:Lafor\u00eat (immobilier)", "contact:city": "Marseille 7eme Arrondissement", "contact:housenumber": "217", "contact:phone": "+33 4 95 09 00 00", "contact:postcode": "13007", "contact:street": "Rue D'Endoume", "name": "Lafor\u00eat", "office": "estate_agent", "opening_hours": "Mo-Sa 09:00-12:00, 12:00-19:00"}}, {"type": "node", "id": 7072177219, "lat": 43.2893857, "lon": 5.3643684, "tags": {"branch": "Marseille - Pharo", "brand": "France Travail", "brand:website": "https://www.francetravail.fr", "brand:wikidata": "Q8901192", "government": "employment_agency", "name": "France Travail", "office": "government", "opening_hours": "Mo-Fr 08:30-12:30", "phone:FR": "3949", "wheelchair": "yes"}}, {"type": "node", "id": 7185421609, "lat": 43.2915414, "lon": 5.3674041, "tags": {"addr:city": "Marseille", "addr:housenumber": "47", "description": "Si\u00e8ge r\u00e9gional - CEM\u00c9A PACA", "name": "Cem\u00e9a PACA", "office": "association", "opening_hours": "Mo-Sa 09:00-17:00"}}, {"type": "node", "id": 8231960049, "lat": 43.2758249, "lon": 5.3608759, "tags": {"addr:housenumber": "261", "name": "Homemarseille.Com", "office": "estate_agent"}}, {"type": "node", "id": 10042571492, "lat": 43.2913066, "lon": 5.3561877, "tags": {"addr:housenumber": "12", "addr:postcode": "13007", "addr:street": "Rue des Catalans", "name": "Office notarial", "office": "notary"}}, {"type": "node", "id": 10282270695, "lat": 43.2798896, "lon": 5.304443, "tags": {"name": "Association Frioul Nouveau Regard (AFNR)", "office": "association", "website": "https://frioul-nouveau-regard.com/"}}, {"type": "node", "id": 10943719705, "lat": 43.2929672, "lon": 5.3702429, "tags": {"addr:city": "Marseille", "addr:housenumber": "19", "internet_access": "yes", "name": "Now coworking", "office": "coworking", "phone": "+33428291881", "website": "https://now-coworking.com"}}, {"type": "node", "id": 11056402806, "lat": 43.2906464, "lon": 5.357507, "tags": {"contact:city": "Marseille 7eme Arrondissement", "contact:housenumber": "25", "contact:phone": "+33 4 91 93 62 61", "contact:postcode": "13007", "contact:street": "Rue Charras", "name": "Buddy's Immobilier Catalans", "office": "estate_agent", "opening_hours": "Mo-Fr 09:00-19:00; Sa 09:30-12:30", "ref:FR:SIRET": "88817281400012", "website": "https://www.buddys-immobilier.fr/", "wheelchair": "no"}}, {"type": "node", "id": 11381176469, "lat": 43.2891713, "lon": 5.3577136, "tags": {"name": "Bureau municipal de proximit\u00e9", "office": "government", "wheelchair": "yes"}}, {"type": "node", "id": 11716918775, "lat": 43.2808621, "lon": 5.3519994, "tags": {"addr:city": "Marseille", "addr:housenumber": "166", "addr:postcode": "13007", "addr:street": "Corniche du Pr\u00e9sident John Fitzgerald Kennedy", "email": "corniche@terrasse-en-ville.com", "name": "Terrasse en Ville Immobilier Corniche", "office": "estate_agent", "opening_hours": "Mo-Su 09:30-19:00", "phone": "+334 91 52 16 21", "website": "https://www.terrasse-en-ville.com/marseille1"}}, {"type": "node", "id": 12500806370, "lat": 43.289063, "lon": 5.3564489, "tags": {"addr:city": "Marseille", "addr:postcode": "13007", "addr:street": "Avenue de la Corse", "name": "CSNJ", "office": "government", "official_name": "Centre du servie national et de la jeunesse", "website": "https://www.defense.gouv.fr/sga/au-service-nation-du-public/jeunesse/devenir-citoyen/journee-defense-citoyennete-jdc", "wheelchair": "yes"}}, {"type": "node", "id": 13234868676, "lat": 43.2935076, "lon": 5.3637086}, {"type": "node", "id": 13612197601, "lat": 43.2869397, "lon": 5.360238, "tags": {"contact:city": "Marseille 7eme Arrondissement", "contact:housenumber": "73", "contact:phone": "+33 6 74 22 26 86", "contact:postcode": "13007", "contact:street": "Rue Sauveur Tobelem", "name": "Cachet Priv\u00e9", "office": "estate_agent"}}, {"type": "way", "id": 121497239, "nodes": [1359939725, 1359939728, 1359939707, 13234868676, 1359939712, 1359939725], "tags": {"building": "office", "name": "Capitainerie", "note": "limites batiment \u00e0 v\u00e9rifier", "office": "harbour_master", "seamark:type": "building"}}]}